stop_id,stop_name,stop_lat,stop_lon,location_type,parent_station,wheelchair_boarding,platform_code
"21051","HolmePort Marina, McCarrs Creek Rd","-33.645897","151.281477","","","1",""
"200021","Wynyard Station, Carrington St, Stand A","-33.865297","151.206375","","","1",""
"200023","Wynyard Station, Carrington St, Stand B","-33.865836","151.206298","","","1",""
"200024","Wynyard Station, Carrington St, Stand C","-33.866137","151.206275","","","1",""
"200025","Wynyard Station, Carrington St, Stand D","-33.866449","151.206238","","","1",""
"200029","Wynyard Station, York St, Stand H","-33.866871","151.20589","","","1",""
"200033","Wynyard Station, York St, Stand K","-33.866192","151.205807","","","1",""
"200035","Wynyard Station, York St, Stand M","-33.865522","151.205722","","","1",""
"200042","QVB, York St, Stand B","-33.872272","151.2065","","","1",""
"200044","QVB, York St, Stand D","-33.871298","151.206427","","","1",""
"200096","Bridge St at Gresham St","-33.863625","151.209726","","","1",""
"205782","Pacific Hwy after Mowbray Rd","-33.804944","151.179174","","","1",""
"205783","Pacific Hwy at Sutherland Rd","-33.802327","151.179411","","","1",""
"206011","North Sydney Station, Blue St, Stand A","-33.840906","151.206689","","","1",""
"206013","Victoria Cross, Miller St","-33.839452","151.206652","","","1",""
"206014","North Sydney Station, Blue St, Stand D","-33.841044","151.207632","","","1",""
"206017","Miller St opp Carlow St","-33.830733","151.208682","","","1",""
"206018","North Sydney Oval, Miller St","-33.832675","151.208251","","","1",""
"206019","Miller St after McLaren St","-33.835256","151.207677","","","1",""
"206024","Miller St before Blue St","-33.840135","151.206704","","","1",""
"206025","Pacific Hwy at West St","-33.833421","151.204791","","","1",""
"206031","Blues Point Rd before Lavender St","-33.842067","151.205647","","","1",""
"206046","Miller St before Berry St","-33.8372","151.207111","","","1",""
"206047","Miller St at McLaren St","-33.83504","151.207526","","","1",""
"206048","Miller St at Ridge St","-33.833132","151.207931","","","1",""
"206049","Miller St at Carlow St","-33.831073","151.208348","","","1",""
"206052","Victoria Cross, Miller St","-33.838502","151.207087","","","1",""
"206057","Lavender St before Walker St","-33.842854","151.207047","","","1",""
"206058","Lavender St opp Cliff St","-33.843544","151.210325","","","1",""
"206059","High St after Clark Rd","-33.842088","151.21263","","","1",""
"206060","High St at Clark Rd","-33.842388","151.213716","","","1",""
"206067","Pacific Hwy at Walker St","-33.840182","151.208289","","","1",""
"206069","Clark Rd after Adderstone Ave","-33.842264","151.214539","","","1",""
"206070","Clark Rd at Kurraba Rd","-33.838662","151.213764","","","1",""
"206071","Clark Rd at High St","-33.842924","151.213702","","","1",""
"206072","Miller St at Falcon St","-33.829341","151.209106","","","1",""
"206073","Falcon St at Miller St","-33.829084","151.209151","","","1",""
"206074","Falcon St at Bardsley Gdns","-33.829001","151.209951","","","1",""
"206075","Falcon St at Moodie St","-33.829409","151.212633","","","1",""
"206078","Monte Sant Angelo College, Miller St","-33.835293","151.2075","","","1",""
"206081","St Marys Primary School, Ridge St","-33.832708","151.207561","","","1",""
"206082","Civic Park, Miller St","-33.833888","151.20779","","","1",""
"206084","North Sydney Station, Blue St, Stand E","-33.841084","151.207911","","","1",""
"206085","Miller St before Pacific Hwy","-33.838196","151.207147","","","1",""
"206113","Milsons Point Station, Broughton St","-33.846624","151.212701","","","1",""
"206114","Broughton St opp Milsons Point Station","-33.845116","151.212593","","","1",""
"206120","Milsons Point Wharf, Alfred St Sth","-33.849916","151.211438","","","1",""
"206121","Alfred St Sth opp Milsons Point Station","-33.846176","151.211292","","","1",""
"206123","Milsons Point Station, Alfred St Sth","-33.846239","151.211437","","","1",""
"206124","Broughton St at Fitzroy St","-33.847706","151.212948","","","1",""
"206125","Broughton St at Pitt St","-33.848075","151.213174","","","1",""
"206127","Fitzroy St at Alfred St","-33.847552","151.211951","","","1",""
"206128","Alfred St at Lavender St","-33.843923","151.210493","","","0",""
"206143","Olympic Dr before Alfred St","-33.850381","151.21185","","","0",""
"206211","Miller St after The Boulevarde","-33.818525","151.212681","","","1",""
"206212","Cammeray Public School, Miller St","-33.819537","151.211159","","","1",""
"206213","Miller St opp Abbott St","-33.822706","151.210374","","","1",""
"206215","Miller St before Ernest St","-33.826181","151.209701","","","1",""
"206216","Miller St before Ernest St","-33.827388","151.209177","","","1",""
"206217","Miller St at Rosalind St","-33.824693","151.2097","","","1",""
"206218","Miller St at Abbott St","-33.822408","151.210246","","","1",""
"206219","Miller St opp Cammeray Public School","-33.820187","151.210722","","","1",""
"206220","Miller St opp Pine St","-33.818716","151.211726","","","1",""
"206221","Amherst St after West St","-33.822625","151.208101","","","1",""
"206222","Amherst St after Miller St","-33.82301","151.210953","","","1",""
"206223","Carter St at Colin St","-33.821666","151.213464","","","1",""
"206224","Carter St at Tiley St","-33.821391","151.216894","","","1",""
"206225","Carter St at Cammeray Rd","-33.82166","151.220508","","","1",""
"206226","Carter St at Cammeray Rd","-33.821598","151.220699","","","1",""
"206227","Carter St at Avon St","-33.821698","151.216315","","","1",""
"206228","Carter St opp Colin St","-33.821778","151.213277","","","1",""
"206229","Palmer St opp Cammeray Public School","-33.821375","151.211764","","","1",""
"206232","ANZAC Park Public School, Anzac Ave","-33.826621","151.211085","","","1",""
"206311","Eastern Valley Way at Tenilba Rd","-33.806966","151.208797","","","1",""
"206313","Tenilba Rd at Kameruka Rd","-33.807297","151.210248","","","1",""
"206314","Kameruka Rd after Jack McLure Pl","-33.806657","151.212262","","","1",""
"206315","Kameruka Rd opp Lower Bligh St","-33.80719","151.214521","","","1",""
"206316","Kameruka Rd at Parker St","-33.807051","151.216727","","","1",""
"206317","Kameruka Rd at Coorabin Rd","-33.80806","151.218554","","","1",""
"206318","Kameruka Rd at Riach Lane","-33.808342","151.219985","","","1",""
"206319","Sailors Bay Rd after Weetawaa Rd","-33.810423","151.224198","","","1",""
"206320","Sailors Bay Rd opp Aubrey Rd","-33.810399","151.225635","","","1",""
"206321","Sailors Bay Rd opp Bourmac Ave","-33.80878","151.228215","","","1",""
"206322","Sailors Bay Rd opp Clive Park","-33.807464","151.229922","","","1",""
"206323","Clive Park, Sailors Bay Rd","-33.807361","151.230421","","","1",""
"206324","Sailors Bay Rd at Bourmac Ave","-33.809199","151.227759","","","1",""
"206325","Sailors Bay Rd at Aubrey Rd","-33.810526","151.22574","","","1",""
"206326","Sailors Bay Rd opp Weetawaa Rd","-33.810544","151.224239","","","1",""
"206328","Northbridge War Memorial, Sailors Bay Rd","-33.810393","151.222","","","1",""
"206329","Northbridge Golf Club, Sailors Bay Rd","-33.811098","151.221092","","","1",""
"206330","Northbridge Public School, Sailors Bay Rd","-33.812078","151.218365","","","1",""
"206331","Sailors Bay Rd opp Tunks St","-33.811744","151.216197","","","1",""
"206333","Sailors Bay Rd at Gunyah St","-33.81139","151.213834","","","1",""
"206335","Sailors Bay Rd at Bellambi St","-33.81087","151.211409","","","1",""
"206336","Sailors Bay Rd opp Gunyah St","-33.811187","151.213464","","","1",""
"206338","Sailors Bay Rd at Tunks St","-33.811537","151.215781","","","1",""
"206339","Sailors Bay Rd opp Namoi Rd","-33.811747","151.217181","","","1",""
"206340","Sailors Bay Rd opp Northbridge Golf Club","-33.810831","151.221208","","","1",""
"206341","Sailors Bay Rd opp Northbridge War Memorial","-33.810184","151.222031","","","1",""
"206342","Kameruka Rd opp Riach Lane","-33.808821","151.220666","","","1",""
"206343","Kameruka Rd opp Coorabin Rd","-33.808194","151.218464","","","1",""
"206344","Kameruka Rd opp Parker St","-33.807205","151.216902","","","1",""
"206345","Kameruka Rd after Lower Bligh St","-33.807325","151.214484","","","1",""
"206346","Kameruka Rd before Kyogle Rd","-33.806783","151.21225","","","1",""
"206347","Harden Ave opp Tenilba Rd","-33.807747","151.210588","","","1",""
"206350","Northbridge Plaza, Eastern Valley Way","-33.808859","151.208356","","","1",""
"206351","Northbridge Plaza, Sailors Bay Rd","-33.810507","151.208942","","","1",""
"206352","Strathallen Ave after Sailors Bay Rd","-33.811308","151.21086","","","1",""
"206353","Strathallen Ave at Baroona Rd","-33.812558","151.21061","","","1",""
"206354","Strathallen Ave at Marana Rd","-33.814148","151.211991","","","1",""
"206355","Strathallen Ave at Cliff Ave","-33.815238","151.212362","","","1",""
"206356","Strathallen Ave opp Marana Rd","-33.814312","151.211865","","","1",""
"206357","Strathallen Ave at Baroona Rd","-33.812849","151.210329","","","1",""
"206358","Strathallen Ave at Sailors Bay Rd","-33.811205","151.210659","","","1",""
"206359","Eastern Valley Way opp Northbridge Plaza","-33.809764","151.207986","","","1",""
"206360","Eastern Valley Way opp Tenilba Rd","-33.806705","151.208642","","","1",""
"206411","Pacific Hwy opp Burley St","-33.811412","151.176036","","","1",""
"206418","Pacific Hwy at Palmer St","-33.807271","151.179721","","","1",""
"206419","Pacific Hwy at Eric Rd","-33.808466","151.1788","","","1",""
"206426","Pacific Hwy opp Cobden Ave","-33.815678","151.178472","","","1",""
"206427","Pacific Hwy at Dickson Ave","-33.817342","151.180997","","","1",""
"206429","Gore Hill Technology Park, Pacific Hwy","-33.819735","151.184397","","","1",""
"206430","TAFE St Leonards, Pacific Hwy","-33.821476","151.186089","","","1",""
"206435","Pacific Hwy opp Allison Ave","-33.814294","151.177728","","","1",""
"206512","Pacific Hwy at Hume St","-33.826323","151.199258","","","1",""
"206513","Pacific Hwy before Christie St","-33.823499","151.196326","","","1",""
"206514","Pacific Hwy after Albany St","-33.824139","151.197647","","","1",""
"206521","St Leonards Station, Pacific Hwy, Stand C","-33.823706","151.193713","","","1",""
"206523","St Leonards Station, Pacific Hwy, Stand A","-33.823205","151.194735","","","1",""
"206524","Pacific Hwy after Shirley Rd","-33.827163","151.200049","","","1",""
"206525","Pacific Hwy before Reserve Rd","-33.824181","151.191772","","","1",""
"206527","Royal North Shore Hospital, Reserve Rd","-33.822339","151.191561","","","1",""
"206528","Pacific Hwy opp Gore Hill Oval","-33.824795","151.190516","","","1",""
"206529","Pacific Hwy at Bellevue Ave","-33.823663","151.187282","","","1",""
"206533","Pacific Hwy opp Dickson Ave","-33.817423","151.180352","","","1",""
"206534","Willoughby Rd after Garland Rd","-33.81371","151.199882","","","1",""
"206535","Willoughby Rd at Dodds St","-33.817914","151.201161","","","1",""
"206536","Willoughby Rd before Dalleys Rd","-33.820042","151.200762","","","1",""
"206537","Willoughby Rd at Atchison St","-33.822794","151.201017","","","1",""
"206538","Willoughby Rd after Holtermann St","-33.825251","151.200947","","","1",""
"206539","Falcon St at Alexander St","-33.827729","151.201657","","","1",""
"206540","Crows Nest, Burlington St, Stand 4","-33.826646","151.201226","","","1",""
"206541","Crows Nest, Burlington St, Stand 5","-33.826686","151.201469","","","1",""
"206542","Alexander St before Hayberry St","-33.828363","151.201873","","","1",""
"206543","Alexander St after Falcon St","-33.827409","151.201939","","","1",""
"206546","Crows Nest, Burlington St, Stand 1","-33.826767","151.201111","","","1",""
"206547","Willoughby Rd opp Holtermann St","-33.824878","151.200818","","","1",""
"206548","Willoughby Rd at Chandos St","-33.822372","151.200847","","","1",""
"206549","St Leonards Catholic Church, Willoughby Rd","-33.819328","151.200861","","","1",""
"206550","Willoughby Rd at Rohan St","-33.817896","151.201002","","","1",""
"206551","Willoughby Rd opp Garland Rd","-33.813987","151.199825","","","1",""
"206594","Pacific Hwy opp Bellevue Ave","-33.823518","151.187478","","","1",""
"206635","Longueville Rd opp Lane Cove Library","-33.814988","151.170045","","","1",""
"206679","Longueville Rd before Birdwood Ave","-33.813635","151.170008","","","1",""
"206681","Lane Cove Aquatic Leisure Centre, Little St","-33.814282","151.1713","","","1",""
"206714","Chatswood Station, Railway St, Stand H","-33.796616","151.180438","","","1",""
"206717","Chatswood Station, Victoria Ave, Stand F","-33.797405","151.179486","","","1",""
"206718","Chatswood Station, Stand B","-33.796108","151.181217","","","1",""
"206719","Anderson St at Endeavour St","-33.795426","151.182687","","","1",""
"206720","Chatswood Station, Stand A","-33.795914","151.181161","","","1",""
"206722","Chatswood Station, Stand D","-33.796195","151.180986","","","1",""
"206723","Victoria Ave after Penshurst St","-33.792632","151.195096","","","1",""
"206724","Mashman Park, Victoria Ave","-33.79384","151.191294","","","1",""
"206726","Victoria Ave opp Chatswood Chase Sydney","-33.795303","151.186545","","","1",""
"206730","The Concourse, Victoria Ave","-33.795885","151.184279","","","1",""
"206731","Chatswood Chase Sydney, Victoria Ave","-33.795321","151.185973","","","1",""
"206732","Victoria Ave at Baldry St","-33.794245","151.189441","","","1",""
"206733","Victoria Ave at Macquarie St","-33.793499","151.191853","","","1",""
"206734","Victoria Ave at Royal St","-33.792626","151.194605","","","1",""
"206746","Pacific Hwy at Gordon Ave","-33.802404","151.17964","","","1",""
"206747","Pacific Hwy before Mowbray Rd","-33.804889","151.179403","","","1",""
"206748","High St opp Harwood Ave","-33.790723","151.198339","","","1",""
"206749","High St at Smith St","-33.78741","151.196842","","","1",""
"206750","Smith St after Lower Gibbes St","-33.786729","151.198325","","","1",""
"206751","Smith St at Lower Gibbes St","-33.786505","151.198459","","","1",""
"206752","High St opp Smith St","-33.787471","151.196668","","","1",""
"206755","High St at Haig St","-33.789976","151.197814","","","1",""
"206756","High St at Harwood Ave","-33.790965","151.198236","","","1",""
"206758","Chatswood Business Park, Eastern Valley Way","-33.785311","151.200698","","","1",""
"206762","Pacific Hwy at Ellis St","-33.800286","151.179526","","","1",""
"206788","Westfield Chatswood, Victoria Ave","-33.796147","151.183636","","","1",""
"206795","Victoria Ave at High St","-33.791671","151.198214","","","1",""
"206811","Eastern Valley Way at Victoria Ave","-33.791632","151.206841","","","1",""
"206812","288 Eastern Valley Way","-33.78915","151.20655","","","1",""
"206813","Eastern Valley Way opp 323","-33.788284","151.204239","","","1",""
"206814","Warrane Reserve, Eastern Valley Way","-33.787787","151.201873","","","1",""
"206815","The Willis Recreation & Sports Centre, Eastern Valley Way","-33.787784","151.202076","","","1",""
"206816","323 Eastern Valley Way","-33.788125","151.204303","","","1",""
"206817","295 Eastern Valley Way","-33.788753","151.206322","","","1",""
"206818","Eastern Valley Way opp Victoria Ave","-33.791234","151.207152","","","1",""
"206826","Eastern Valley Way opp McClelland St","-33.795148","151.208636","","","1",""
"206827","Eastern Valley Way opp Robert St","-33.797698","151.209687","","","1",""
"206828","Eastern Valley Way after Sunnyside Cres","-33.800275","151.210811","","","1",""
"206829","Eastern Valley Way at Edinburgh Rd","-33.802198","151.211643","","","1",""
"206830","Edinburgh Rd at Raeburn Ave","-33.802318","151.212451","","","1",""
"206832","Glenaeon Rudolf Steiner School, Edinburgh Rd","-33.801803","151.216102","","","1",""
"206833","Edinburgh Rd at Sunnyside Cres","-33.799959","151.218311","","","1",""
"206834","209 Edinburgh Rd","-33.799145","151.221871","","","1",""
"206835","Edinburgh Rd at Linden Way","-33.798712","151.22678","","","1",""
"206836","208 Edinburgh Rd","-33.799274","151.222117","","","1",""
"206837","Edinburgh Rd opp Sunnyside Cres","-33.800086","151.218395","","","1",""
"206838","Castlecrag Private Hospital, Edinburgh Rd","-33.801524","151.216799","","","1",""
"206839","Edinburgh Rd opp Glenaeon Rudolf Steiner School","-33.802125","151.215944","","","1",""
"206840","Edinburgh Rd opp Charles St","-33.802452","151.214835","","","1",""
"206841","Edinburgh Rd at Eastern Valley Way","-33.802467","151.212015","","","1",""
"206842","Eastern Valley Way before Morotai Cres","-33.804168","151.210299","","","1",""
"206843","Eastern Valley Way before Warners Ave","-33.80409","151.210073","","","1",""
"206844","Eastern Valley Way at Edinburgh Rd","-33.8021","151.211323","","","1",""
"206845","Eastern Valley Way before Sunnyside Cres","-33.800222","151.21057","","","1",""
"206846","Eastern Valley Way at Robert St","-33.797728","151.209478","","","1",""
"206847","Eastern Valley Way at McClelland St","-33.795051","151.208206","","","1",""
"206852","Penshurst St after MacMahon St","-33.793827","151.196212","","","1",""
"206853","Penshurst St opp Church St","-33.795897","151.197141","","","1",""
"206854","Penshurst St at Forsyth St","-33.797513","151.197885","","","1",""
"206855","Penshurst St at Rosewall St","-33.798809","151.198462","","","1",""
"206856","Laurel Bank Cottage, Penshurst St","-33.800748","151.198863","","","1",""
"206857","Penshurst St before Mowbray Rd","-33.802777","151.198463","","","1",""
"206877","Willoughby Rd at Hudson Ave","-33.804833","151.199404","","","1",""
"206878","Willoughby Rd opp Julian St","-33.806708","151.199354","","","1",""
"206879","Willoughby Rd at Small St","-33.810412","151.199597","","","1",""
"206881","Willoughby Rd at Armstrong St","-33.810178","151.199356","","","1",""
"206882","Willoughby Rd at Julian St","-33.806511","151.199165","","","1",""
"206883","Willoughby Rd before Mowbray Rd","-33.803932","151.199401","","","1",""
"206884","Penshurst St after Mowbray Rd","-33.802563","151.198319","","","1",""
"206885","Penshurst St opp Laurel Bank Cottage","-33.800787","151.19867","","","1",""
"206886","Penshurst St at Lea Ave","-33.799372","151.198522","","","1",""
"206887","Penshurst St at Forsyth St","-33.797777","151.197813","","","1",""
"206888","Penshurst St at Church St","-33.795898","151.196961","","","1",""
"206889","Penshurst St opp MacMahon St","-33.793966","151.196098","","","1",""
"206911","Eastern Valley Way opp Deepwater Rd","-33.783849","151.199218","","","1",""
"206912","Clive St opp Malvern Ave","-33.781448","151.196125","","","1",""
"206917","Archbold Rd at Roseville Ave","-33.779096","151.185293","","","1",""
"206918","Archbold Rd before Clanville Rd","-33.776963","151.183589","","","1",""
"206919","Archbold Rd after Clanville Rd","-33.775946","151.182795","","","1",""
"206920","Archbold Rd opp Dudley Ave","-33.77735","151.184127","","","1",""
"206921","Archbold Rd at Earl St","-33.77933","151.185727","","","1",""
"206922","Earl St opp Oroya Pde","-33.778886","151.188189","","","1",""
"206923","Earl St before Moore St","-33.778242","151.190231","","","1",""
"206925","Addison Ave at Babbage Rd","-33.779348","151.194959","","","1",""
"206926","Clive St at Malvern Ave","-33.781526","151.196544","","","1",""
"206927","Eastern Valley Way at Deepwater Rd","-33.783614","151.199297","","","1",""
"206928","Eastern Valley Way opp Smith St","-33.785953","151.201283","","","1",""
"206933","Addison Ave after Babbage Rd","-33.779542","151.194843","","","1",""
"206960","Addison Ave at Moore St","-33.780423","151.192021","","","1",""
"206962","Roseville Public School, Addison Ave","-33.781697","151.187851","","","1",""
"206965","Addison Ave at Moore St","-33.780253","151.192068","","","1",""
"206966","Babbage Rd at Park Ave","-33.778626","151.194931","","","1",""
"206967","Roseville Scout Group, Warringah Rd","-33.775005","151.198089","","","1",""
"206968","Warringah Rd before Babbage Rd","-33.775231","151.198317","","","1",""
"206969","Babbage Rd at Allan St","-33.779103","151.195472","","","1",""
"207011","Archbold Rd before Chelmsford Rd","-33.775074","151.182126","","","1",""
"207012","Archbold Rd after Chelmsford Rd","-33.773882","151.181186","","","1",""
"207026","Adelaide Ave after Melbourne Rd","-33.769762","151.186296","","","1",""
"207028","Adelaide Ave before Sydney Rd","-33.771091","151.184119","","","1",""
"207031","Archbold Rd after Middle Harbour Rd","-33.773755","151.18132","","","1",""
"207032","Archbold Rd before Woodlands Rd","-33.774865","151.18217","","","1",""
"207033","Archbold Rd after Woodlands Rd","-33.775824","151.182918","","","1",""
"207066","Owen St at Archbold Rd","-33.772007","151.180172","","","1",""
"207067","Owen St before Sydney Rd","-33.770896","151.182572","","","1",""
"207068","Tryon Rd at Loombah Ave","-33.76937","151.182438","","","1",""
"207069","Lindfield East Public School, Tryon Rd","-33.767849","151.184924","","","1",""
"207070","East Lindfield Community Hall, Crana Ave","-33.767874","151.186941","","","1",""
"207083","Owen St at Sydney Rd","-33.770937","151.182738","","","1",""
"207084","Owen St at Archbold Rd","-33.772112","151.18023","","","1",""
"208612","Aquatic Dr at Madison Way","-33.755485","151.239341","","","1",""
"208613","Warringah Aquatic Centre, Access Rd","-33.755848","151.236066","","","1",""
"208614","Aquatic Dr opp Madison Way","-33.755346","151.239468","","","1",""
"208615","Allambie Rd before Warringah Rd","-33.753086","151.243489","","","1",""
"208616","Allambie Rd at Frenchs Forest Rd","-33.751434","151.243851","","","1",""
"208617","Skyline Shops, Frenchs Forest Rd E","-33.751281","151.244666","","","1",""
"208618","Iris St opp Karabah Pl","-33.749396","151.247198","","","1",""
"208619","Iris St at Patanga Rd","-33.74897","151.244423","","","1",""
"208620","Allambie Rd after Frenchs Forest Rd","-33.751696","151.243988","","","1",""
"208621","Patanga Park, Patanga Rd","-33.750454","151.243856","","","1",""
"208622","Patanga Rd at Iris St","-33.749116","151.244112","","","1",""
"208623","Frenchs Forest Public School, Sorlie Pl","-33.751","151.224","","","1",""
"208624","Paxton St after Iris St","-33.748156","151.242551","","","1",""
"208625","Paxton St at Valley View Way","-33.745766","151.243035","","","1",""
"208626","Paxton St at Poulton Pde","-33.745616","151.243223","","","1",""
"208627","Paxton St before Iris St","-33.748215","151.242732","","","1",""
"208628","Iris St opp Patanga Rd","-33.748778","151.244002","","","1",""
"208629","Iris St at Karabah Pl","-33.749221","151.246935","","","1",""
"208630","Wakehurst Pwy at Yarraman Ave Walkway","-33.759253","151.232682","","","1",""
"208633","Frenchs Forest Rd opp Cobb St","-33.748978","151.227727","","","1",""
"208636","Frenchs Forest Rd opp Nth Beaches Hospital","-33.749532","151.23243","","","1",""
"208637","Wakehurst Pwy after Frenchs Forest Rd","-33.750928","151.234976","","","1",""
"208638","Wakehurst Pkwy after Warringah Rd","-33.753","151.234433","","","1",""
"208639","Frenchs Forest Rd opp Skyline Pl","-33.750237","151.237457","","","1",""
"208640","Frenchs Forest Rd at Romford Rd","-33.750675","151.240359","","","1",""
"208642","Frenchs Forest Rd opp Inverness Ave","-33.75112","151.24252","","","1",""
"208643","Frenchs Forest Rd opp Hurdis Ave","-33.75084","151.240447","","","1",""
"208644","Frenchs Forest Rd after Skyline Pl","-33.750436","151.237514","","","1",""
"208645","Nth Beaches Hospital, Frenchs Forest Rd","-33.749707","151.232335","","","1",""
"208646","The Forest High School, Frenchs Forest Rd, Stand B","-33.749474","151.230773","","","1",""
"208648","The Forest High School, Frenchs Forest Rd, Stand A","-33.749416","151.230379","","","1",""
"208649","Rabbett St at Forest Way","-33.750648","151.226219","","","1",""
"208652","Warringah Rd opp Rodborough Rd","-33.752933","151.239564","","","1",""
"208655","Wakehurst Pwy opp Yarraman Ave Walkway","-33.759296","151.232888","","","1",""
"208656","The Forest High School, Frenchs Forest Rd, Stand C","-33.749526","151.231126","","","1",""
"208663","Forest Way opp Forestway Shopping Centre","-33.75075","151.226074","","","1",""
"208664","Warrringah Rd at Bantry Bay Rd","-33.751905","151.232859","","","1",""
"208666","Warringah Rd after Rodborough Rd","-33.753103","151.238969","","","1",""
"208669","Warringah Rd opp Maxwell Pde","-33.754412","151.222741","","","1",""
"208670","Warringah Rd before Fitzpatrick Ave","-33.753414","151.224219","","","1",""
"208671","Forestway Shopping Centre, Forest Way","-33.749941","151.225058","","","1",""
"208697","Naree Rd before Rabbett St","-33.748512","151.225734","","","1",""
"208698","The Forest High School, Frenchs Forest Rd, Stand D","-33.749207","151.230166","","","1",""
"208711","Wakehurst Pwy opp Manly Warringah War Memorial Park","-33.769922","151.235141","","","1",""
"208712","Manly Warringah War Memorial Park, Wakehurst Pwy","-33.76987","151.235279","","","1",""
"208713","Wakehurst Pwy at Kirkwood St","-33.778643","151.238414","","","1",""
"208714","Warringah Rd at Starkey St","-33.76094","151.216992","","","1",""
"208733","Warringah Rd at Valley Rd","-33.763797","151.205758","","","1",""
"208734","Warringah Rd at Ryrie Ave","-33.762352","151.206836","","","1",""
"208735","Warringah Rd after Woodlands Rd","-33.759921","151.209607","","","1",""
"208736","Warringah Rd opp Melwood Ave","-33.759778","151.212147","","","1",""
"208737","Warringah Rd opp Darley St","-33.760016","151.213664","","","1",""
"208738","Warringah Rd after Ferguson St","-33.76063","151.21722","","","1",""
"208739","Warringah Rd after Brown St","-33.758501","151.219299","","","1",""
"208740","Warringah Rd before Altona Ave","-33.756417","151.220454","","","1",""
"208741","Warringah Rd at Maxwell Pd","-33.754746","151.222734","","","1",""
"208742","Warringah Rd opp Altona Ave","-33.756529","151.220733","","","1",""
"208743","Warringah Rd at Currie Rd","-33.759052","151.219331","","","1",""
"208752","Warringah Rd at Darley St","-33.760391","151.214034","","","1",""
"208753","Warringah Rd at Melwood Ave","-33.760067","151.211959","","","1",""
"208754","Warringah Rd before Forestville Ave","-33.760128","151.210207","","","1",""
"208755","Warringah Rd opp Laurel Ch","-33.762385","151.207224","","","1",""
"208756","Warringah Rd opp Valley Rd","-33.764052","151.205926","","","1",""
"208811","Spit West Reserve, Spit Rd","-33.806202","151.246416","","","1",""
"208812","Spit East Reserve, Spit Rd","-33.805262","151.246537","","","1",""
"208813","Spofforth St after Military Rd","-33.82849","151.230375","","","1",""
"208814","Spofforth St at Holt Ave","-33.830677","151.229905","","","1",""
"208815","Spofforth St at Brierley St","-33.832352","151.229556","","","1",""
"208816","Spofforth St at Reginald St","-33.83364","151.229295","","","1",""
"208817","Spofforth St opp Florence Lane","-33.83481","151.22904","","","1",""
"208818","Spit Junction, Military Rd","-33.82471","151.241462","","","1",""
"208819","Mandalong Rd opp Melaleuca Lane","-33.825182","151.243456","","","1",""
"208821","Moruben Rd at Clifford St","-33.824253","151.244756","","","1",""
"208822","Spit Junction, Punch St","-33.823364","151.243756","","","1",""
"208823","Moruben Rd at Awaba St","-33.821582","151.245299","","","1",""
"208824","Moruben Rd at Stanton Rd","-33.819379","151.245871","","","1",""
"208825","Stanton Rd after Spit Rd","-33.818934","151.244488","","","1",""
"208826","Stanton Rd at Tivoli St","-33.81932","151.247264","","","1",""
"208827","Kirkoswald Ave before Fairfax Rd","-33.818626","151.249179","","","1",""
"208828","Kirkoswald Ave at Fairfax Rd","-33.817762","151.249348","","","1",""
"208829","Kirkoswald Ave before Burran Ave","-33.81676","151.251151","","","1",""
"208830","Burran Ave after Stanton Rd","-33.818532","151.25145","","","1",""
"208831","Burran Ave at Stanton Rd","-33.81946","151.250851","","","1",""
"208832","Wyargine St at Edwards Bay Rd","-33.820519","151.250405","","","1",""
"208833","Edwards Bay Rd at The Grove","-33.820321","151.247891","","","1",""
"208834","The Grove at Edwards Bay Rd","-33.820501","151.247898","","","1",""
"208835","Edwards Bay Rd at Wyargine St","-33.82052","151.250136","","","1",""
"208836","Burran Ave at Stanton Rd","-33.819356","151.250723","","","1",""
"208837","Burran Ave opp Stanton Rd","-33.81836","151.251464","","","1",""
"208838","Burran Ave at Kirkoswald Ave","-33.816796","151.251766","","","1",""
"208839","Kirkoswald Ave at Fairfax Rd","-33.8179","151.249518","","","1",""
"208840","Kirkoswald Ave after Fairfax Rd","-33.818743","151.249351","","","1",""
"208841","Tivoli St at Kirkoswald Ave","-33.819091","151.247534","","","1",""
"208842","Stanton Rd opp Hampden St","-33.819367","151.246467","","","1",""
"208843","Moruben Rd at Awaba St","-33.821082","151.245581","","","1",""
"208844","Moruben Rd opp Punch St","-33.823167","151.245147","","","1",""
"208846","Military Rd at Almora St","-33.827128","151.244089","","","1",""
"208847","Military Rd opp Mosman High School","-33.828804","151.244151","","","1",""
"208848","Military Rd after Raglan St","-33.831395","151.24443","","","1",""
"208849","Bradleys Head Rd at King Max St","-33.834416","151.245787","","","1",""
"208850","Bradleys Head Rd after Ellamatta Rd","-33.835468","151.246465","","","1",""
"208851","Bradleys Head Rd opp Union St","-33.836711","151.246303","","","1",""
"208852","Bradleys Head Rd at Thompson St","-33.838847","151.245093","","","1",""
"208853","Bradleys Head Rd opp Whiting Beach Rd","-33.840849","151.243787","","","1",""
"208855","Taronga Zoo, Bradleys Head Rd","-33.84209","151.243489","","","1",""
"208856","Taronga Zoo Wharf, Athol Wharf Rd","-33.84579","151.239752","","","1",""
"208857","Bradleys Head Rd opp Ashton Park","-33.84478","151.244345","","","1",""
"208858","Bradleys Head Rd at Whiting Beach Rd","-33.840762","151.243629","","","1",""
"208859","Bradleys Head Rd at Thompson St","-33.839237","151.244577","","","1",""
"208860","Bradleys Head Rd at Union St","-33.836841","151.245977","","","1",""
"208861","Bradleys Head Rd at Queen St","-33.835089","151.246017","","","1",""
"208862","Bradleys Head Rd at Prince Albert St","-33.832118","151.24427","","","1",""
"208863","Military Rd at Raglan St","-33.831314","151.244188","","","1",""
"208864","Mosman High School, Military Rd","-33.829364","151.244022","","","1",""
"208865","Mosman High School, Gladstone Ave","-33.829666","151.242787","","","1",""
"208867","Mosman High, Gladstone Ave","-33.830033","151.24282","","","1",""
"208868","Mosman High, Gladstone Ave","-33.830159","151.242828","","","1",""
"208869","Military Rd at Gouldsbury St","-33.828057","151.243946","","","1",""
"208870","Military Rd opp Almora St","-33.826801","151.243799","","","1",""
"208871","Spit Junction, Military Rd","-33.824929","151.241566","","","1",""
"208872","Raglan St opp Martens Lane","-33.830832","151.244701","","","1",""
"208873","Raglan St after Muston St","-33.830742","151.246066","","","1",""
"208874","Raglan St opp Gibson Rd","-33.829516","151.247404","","","1",""
"208875","Raglan St at Esther Rd","-33.827407","151.249724","","","1",""
"208876","Raglan St at The Esplanade","-33.826402","151.251011","","","1",""
"208879","The Esplanade at Awaba St","-33.822156","151.250404","","","1",""
"208880","Queenwood School for Girls, Waitovu St","-33.822761","151.249668","","","1",""
"208882","Queenwood School for Girls, Waitovu St","-33.823026","151.249614","","","0",""
"208887","Mandolong Rd at The Esplanade","-33.823253","151.250413","","","1",""
"208888","The Esplanade opp Hunter Park","-33.82444","151.250984","","","1",""
"208889","Raglan St at The Esplanade","-33.826562","151.251063","","","1",""
"208890","Raglan St opp Esther Rd","-33.827545","151.249873","","","1",""
"208891","Raglan St after Gibson Rd","-33.829411","151.247582","","","1",""
"208892","Raglan St at Muston St","-33.830908","151.245971","","","1",""
"208893","Raglan St at Military Rd","-33.830994","151.244615","","","1",""
"208894","Redan St after Raglan St","-33.831193","151.246877","","","1",""
"208895","Wolseley Rd opp The Tar","-33.832229","151.247877","","","1",""
"208896","Wolseley Rd at Gordon St","-33.831667","151.249884","","","1",""
"208897","Wolseley Rd at Beaconsfield Rd","-33.831862","151.251012","","","1",""
"208898","Beaconsfield Rd at Frascatti Lane","-33.833098","151.251034","","","1",""
"208911","Watson Street Interchange, Stand B","-33.830159","151.218018","","","1",""
"208912","Watson Street Interchange, Stand A","-33.830228","151.218006","","","1",""
"208913","Neutral Bay Junction, Military Rd, Stand B","-33.831648","151.222936","","","1",""
"208914","Neutral Bay Junction, Military Rd, Stand A","-33.831653","151.22274","","","1",""
"208915","Wycombe Rd after Military Rd","-33.832002","151.222389","","","1",""
"208916","Ben Boyd Rd at Yeo St","-33.832183","151.219242","","","1",""
"208917","Ben Boyd Rd before Undercliff St","-33.834467","151.218844","","","1",""
"208918","Ben Boyd Rd opp Premier St","-33.835463","151.21716","","","1",""
"208919","Ben Boyd Rd at Phillips St","-33.8372","151.217294","","","1",""
"208920","Spruson St before Montpelier St","-33.834945","151.215392","","","1",""
"208921","Montpelier St before Rawson St","-33.835789","151.214784","","","1",""
"208922","Rawson St at Kurraba Rd","-33.838337","151.21388","","","1",""
"208923","Rawson St at Eaton St","-33.835917","151.214172","","","1",""
"208924","Spruson St after Montpelier St","-33.834985","151.215564","","","1",""
"208925","Phillips St at Ben Boyd Rd","-33.837452","151.216927","","","1",""
"208926","Ben Boyd Rd at Premier St","-33.835311","151.217232","","","1",""
"208927","Ben Boyd Rd at Lindsay St","-33.834132","151.218726","","","1",""
"208928","Ben Boyd Rd before Yeo St","-33.83236","151.219022","","","1",""
"208929","Wycombe Rd before Military Rd","-33.831998","151.222231","","","1",""
"208930","Wycombe Rd at Shellcove Rd","-33.834938","151.221839","","","1",""
"208931","Wycombe Rd opp Raymond Rd","-33.83652","151.221689","","","1",""
"208932","Wycombe Rd at Harriette St","-33.838243","151.221963","","","1",""
"208933","Wycombe Rd at Kurraba Rd","-33.840046","151.221357","","","1",""
"208934","Kurraba Rd opp Thrupp St","-33.840139","151.220118","","","1",""
"208935","Neutral Bay Wharf, Hayes St","-33.841928","151.218916","","","1",""
"208936","Lower Wycombe Rd at Hayes St","-33.840957","151.219259","","","1",""
"208937","Lower Wycombe Rd at Kurraba Rd","-33.840483","151.221016","","","1",""
"208938","Wycombe Rd at Harriette St","-33.838219","151.221788","","","1",""
"208939","Wycombe Rd at Raymond Rd","-33.836576","151.221523","","","1",""
"208940","Wycombe Rd opp Bennett St","-33.834455","151.221734","","","1",""
"208941","Wycombe Rd at Yeo St","-33.832483","151.222124","","","1",""
"208942","Rangers Rd before Military Rd","-33.831974","151.223789","","","1",""
"208944","Neutral Bay Junction, Military Rd, Stand D","-33.831494","151.22363","","","1",""
"208945","Neutral Bay Junction, Military Rd, Stand C","-33.831645","151.223086","","","1",""
"208947","Big Bear Shopping Centre, Military Rd","-33.829904","151.218438","","","1",""
"208948","Neutral Bay Junction, Military Rd, Stand E","-33.831205","151.22172","","","1",""
"208960","Military Rd opp Big Bear Shopping Centre","-33.830281","151.218655","","","0",""
"209011","Grafton St opp Fall St","-33.82392","151.219726","","","1",""
"209012","Earle St opp View St","-33.825188","151.220651","","","1",""
"209013","Earle St at Young St","-33.825087","151.222536","","","1",""
"209014","Grasmere Rd opp Grasmere Children's Park","-33.826826","151.223068","","","1",""
"209015","Benelong Rd after Brightmore St","-33.824655","151.226259","","","1",""
"209016","Benelong Rd at Brightmore St","-33.825662","151.22479","","","1",""
"209017","Benelong Rd at Grasmere Rd","-33.826928","151.223792","","","1",""
"209018","Waters Rd at Reynolds St","-33.827826","151.225193","","","1",""
"209019","Military Rd before Hampden Ave","-33.830684","151.225807","","","1",""
"209020","Military Rd opp Redlands Senior Campus","-33.830847","151.225415","","","1",""
"209021","Military Rd opp Hampden Ave","-33.830804","151.224961","","","1",""
"209022","Grasmere Rd at Waters Rd","-33.827535","151.224911","","","1",""
"209023","Earle St opp Young St","-33.825223","151.222487","","","1",""
"209024","Earle St opp Grafton St","-33.825164","151.220241","","","1",""
"209025","Grafton St at Fall St","-33.824307","151.219735","","","1",""
"209026","Florence St at Reed St","-33.83522","151.227845","","","1",""
"209027","Murdoch St opp Bennett St","-33.836138","151.226465","","","1",""
"209028","Murdoch St before Iredale Ave","-33.837487","151.2263","","","1",""
"209029","Milson Rd opp Prior Ave","-33.838314","151.226009","","","1",""
"209030","109 Milson Rd","-33.840248","151.226504","","","1",""
"209031","Milson Rd at Sirius St","-33.841145","151.226877","","","1",""
"209032","Milson Rd opp 58","-33.842878","151.227499","","","1",""
"209033","Milson Rd at Rialto Ave","-33.844358","151.22828","","","1",""
"209034","Milson Rd before Cremorne Rd","-33.845925","151.229818","","","1",""
"209035","Cremorne Point Wharf, Milson Rd","-33.847365","151.230551","","","1",""
"209036","Military Rd at Spencer Rd","-33.829026","151.228593","","","0",""
"209040","Milson Rd after Cremorne Rd","-33.845575","151.229289","","","1",""
"209041","Milson Rd opp Rialto Ave","-33.844565","151.228299","","","1",""
"209042","58 Milson Rd","-33.842889","151.227356","","","1",""
"209043","Milson Rd opp Sirius St","-33.8414","151.226808","","","1",""
"209044","116 Milson Rd","-33.84051","151.226427","","","1",""
"209045","Milson Rd at Prior Ave","-33.838524","151.225813","","","1",""
"209046","Murdoch St before Bannerman St","-33.837311","151.226145","","","1",""
"209047","Murdoch St after Bennett St","-33.83599","151.226316","","","1",""
"209049","Redlands Junior Campus, Murdoch St","-33.831973","151.226659","","","1",""
"209051","Florence St at Reed St","-33.835025","151.227471","","","1",""
"209052","Florence St at Spofforth St","-33.83513","151.228568","","","1",""
"209053","Spofforth St opp Reginald St","-33.833582","151.229105","","","1",""
"209054","Spofforth St at Cranbrook Ave","-33.832159","151.229433","","","1",""
"209055","Spofforth St at Holt Ave","-33.830547","151.229764","","","1",""
"209056","Spofforth St after Cabramatta Rd","-33.82882","151.230122","","","1",""
"209057","Spofforth St at Military Rd","-33.828489","151.230195","","","1",""
"209058","Military Rd opp Holt Ave","-33.829479","151.227711","","","1",""
"209059","Military Rd before Cabramatta Rd","-33.828469","151.229763","","","1",""
"209060","Gerard St after Winnie St","-33.828335","151.226323","","","1",""
"209061","Gerard St at Benelong Rd","-33.826929","151.229275","","","1",""
"209062","Macpherson St opp Prince St","-33.825667","151.231232","","","1",""
"209063","Macpherson St at Montague Rd","-33.823724","151.231593","","","1",""
"209064","Macpherson St opp Middle Harbour Public School","-33.82257","151.231831","","","1",""
"209065","Macpherson St at Ellalong Rd","-33.818764","151.232731","","","1",""
"209066","Gerard St opp Benelong Rd","-33.82708","151.229342","","","1",""
"209067","Gerard St before Winnie St","-33.828652","151.226012","","","1",""
"209068","Macpherson St after Fernhurst Ave","-33.820791","151.232216","","","1",""
"209136","NBSC Freshwater Senior Campus, Harbord Rd","-33.766748","151.279216","","","0",""
"209211","Manly Rd opp Avona Cres","-33.799502","151.249553","","","1",""
"209212","Manly Rd at Avona Cres","-33.799942","151.24893","","","1",""
"209213","Battle Bvd at Manly Rd","-33.800165","151.246758","","","1",""
"209214","Battle Bvd at Seaforth Cres","-33.801463","151.243223","","","1",""
"209215","Palmerston Pl after Alan Ave","-33.79965","151.243776","","","1",""
"209216","Ponsonby Pde opp Palmerston Pl","-33.798338","151.244749","","","1",""
"209217","Alan Ave after Palmerston Pl","-33.800084","151.243368","","","1",""
"209218","Salisbury Sq before Ponsonby Pde","-33.798719","151.242521","","","1",""
"209219","Seaforth Cres opp Sangrado Park","-33.798501","151.241202","","","1",""
"209220","Seaforth Cres after Princes Prom","-33.799859","151.23896","","","1",""
"209221","Princes Prom opp Richmond Rd","-33.801743","151.239532","","","1",""
"209222","Ponsonby Pde at Panorama Pde","-33.798063","151.246785","","","1",""
"209223","Ponsonby Pde opp Old Sydney Rd","-33.798297","151.248505","","","1",""
"209224","Frenchs Forest Rd at Ellery Pde","-33.79656","151.249877","","","1",""
"209225","Frenchs Forest Rd opp Seaforth Public School","-33.794474","151.250362","","","1",""
"209226","Brook Rd opp Seaforth Public School","-33.793014","151.250682","","","1",""
"209227","Clontarf St at Lister Ave","-33.787036","151.242124","","","1",""
"209228","Clontarf St at Lister Ave","-33.786981","151.241983","","","1",""
"209229","Lister Ave at Wakehurst Pkwy","-33.787045","151.240425","","","1",""
"209230","Lister Ave at Wakehurst Pkwy","-33.786893","151.240391","","","1",""
"209231","Wakehurst Pkwy after Lister Ave","-33.787465","151.240399","","","1",""
"209232","Wakehurst Pkwy opp Castle Cct","-33.788973","151.241103","","","1",""
"209233","Clontarf St opp Callicoma Rd","-33.791606","151.241201","","","1",""
"209234","Frenchs Forest Rd at Montauban Ave","-33.792722","151.244387","","","1",""
"209235","Frenchs Forest Rd before Baringa Ave","-33.793207","151.247707","","","1",""
"209236","Frenchs Forest Rd opp Baringa Ave","-33.793332","151.247468","","","1",""
"209237","Frenchs Forest Rd at Redman St","-33.792812","151.244025","","","1",""
"209238","Clontarf St opp Montauban Ave","-33.791291","151.241058","","","1",""
"209239","Wakehurst Pkwy before Castle Cct","-33.78928","151.240998","","","1",""
"209240","Wakehurst Pkwy opp Lister Ave","-33.787183","151.240064","","","1",""
"209241","Wakehurst Pkwy opp Armstrong St","-33.785739","151.239436","","","1",""
"209242","Seaforth Oval, Wakehurst Pkwy","-33.782403","151.237876","","","1",""
"209243","Wakehurst Pkwy opp Judith St","-33.780623","151.237819","","","1",""
"209245","Judith St after Clontarf St","-33.782462","151.242397","","","1",""
"209246","Wakehurst Pkwy opp Seaforth Oval","-33.782933","151.238358","","","1",""
"209247","Wakehurst Pkwy at Armstrong St","-33.785692","151.239612","","","1",""
"209249","Ponsonby Pde before Palmerston Pl","-33.798422","151.245087","","","1",""
"209250","Sydney Rd opp Kempbridge Ave","-33.797159","151.251335","","","1",""
"209251","Balgowlah RSL Memorial Club, Ethel St","-33.797631","151.251219","","","1",""
"209252","Sydney Rd after Kempbridge Ave","-33.7968","151.251447","","","1",""
"209253","Wakehurst Pkwy opp Kirkwood St","-33.778781","151.238206","","","1",""
"209254","Wakehurst Pkwy at Judith St","-33.780369","151.238064","","","1",""
"209255","Seaforth Public School, Frenchs Forest Rd","-33.794435","151.250543","","","1",""
"209256","Seaforth Public School, Frenchs Forest Rd","-33.794586","151.250511","","","1",""
"209257","Seaforth Public School, Frenchs Forest Rd","-33.79474","151.25048","","","1",""
"209258","Seaforth Public School, Brook Rd","-33.793053","151.250839","","","1",""
"209259","Ross St at Sydney Rd","-33.797526","151.249091","","","1",""
"209260","Panorama Pde at Ponsonby Pde","-33.797985","151.247049","","","1",""
"209261","Edgecliffe Esp opp Ashton Ave","-33.801887","151.24143","","","1",""
"209262","Edgecliffe Esp at Palmerston Pl","-33.800892","151.243242","","","1",""
"209263","Grandview Gr before Panorama Pde","-33.797039","151.246279","","","1",""
"209264","Grandview Gr opp Aden St","-33.796695","151.243732","","","1",""
"209265","Princes Prom at Alan Ave","-33.800643","151.23927","","","1",""
"209266","Grandview Gr after Panorama Pde","-33.79716","151.246217","","","1",""
"209267","Grandview Gr at Munoora St","-33.796539","151.241916","","","1",""
"209268","Ellery Pde after Munoora St","-33.795139","151.241233","","","1",""
"209269","Dalwood Ave opp Peacock St","-33.794118","151.240498","","","1",""
"209270","Peacock St after Redman St","-33.794381","151.243986","","","1",""
"209271","Peacock St at Reid St","-33.794717","151.246205","","","1",""
"209272","Peacock St before Frenchs Forrest Rd","-33.795232","151.249619","","","1",""
"209273","Peacock St after Frenchs Forrest Rd","-33.795359","151.249761","","","1",""
"209274","Peacock St at Reid St","-33.794873","151.246645","","","1",""
"209275","Peacock St at Redman St","-33.794453","151.243699","","","1",""
"209276","Dalwood Ave at Peacock St","-33.794282","151.240602","","","1",""
"209277","Grandview Gr at Munoora St","-33.796428","151.24194","","","1",""
"209278","Seaforth Public School, Benelong St","-33.791502","151.248661","","","1",""
"209311","Balgowlah Golf Club, Sydney Rd","-33.795659","151.254056","","","1",""
"209312","Sydney Rd before Wanganella St","-33.794669","151.257402","","","1",""
"209313","Sydney Rd at Rickard St","-33.794059","151.259456","","","1",""
"209314","Sydney Rd before Woodland St","-33.79396","151.262277","","","1",""
"209315","Sydney Rd at Condamine St","-33.794291","151.26442","","","1",""
"209316","Condamine St opp Balgowlah Uniting Church","-33.79409","151.264826","","","1",""
"209317","Condamine St at Griffiths St","-33.792185","151.265211","","","1",""
"209318","Condamine St at Balgowlah Rd","-33.789962","151.265647","","","1",""
"209319","Condamine St opp Manly Vale Community Centre","-33.783105","151.267421","","","1",""
"209320","St Kieran's Church, Codamine St","-33.782429","151.267569","","","1",""
"209321","Condamine St after Gordon St","-33.781323","151.267663","","","1",""
"209322","Miller Reserve, Condamine St","-33.77828","151.267031","","","1",""
"209323","Condamine St at Gordon St","-33.781454","151.267958","","","1",""
"209324","Manly Vale Community Centre, Condamine St","-33.783174","151.267689","","","1",""
"209325","Manly Vale B-Line, Condamine St","-33.786324","151.26683","","","1",""
"209326","Manly Vale B-Line, Condamine St","-33.786134","151.266627","","","1",""
"209327","Condamine St at Balgowlah Rd","-33.790085","151.265797","","","1",""
"209328","Condamine St at Griffiths St","-33.791913","151.265459","","","1",""
"209329","Balgowlah Uniting Church, Condamine St","-33.793974","151.265034","","","1",""
"209330","Sydney Rd at Woodland St","-33.794242","151.26309","","","1",""
"209331","Sydney Rd at West St","-33.794075","151.26016","","","1",""
"209332","Sydney Rd at Wanganella St","-33.79462","151.258283","","","1",""
"209334","Sydney Rd at Coral St","-33.795817","151.254215","","","1",""
"209335","Manly Rd at Heaton Ave","-33.798917","151.251641","","","1",""
"209336","Bangaroo St at Worrobil St","-33.790498","151.250951","","","1",""
"209337","St Pauls Rd opp Hunter St","-33.78934","151.250046","","","1",""
"209338","Hunter St before Woodbine St","-33.787818","151.250058","","","1",""
"209339","Eileen St opp Woolgoolga St","-33.78673","151.249899","","","1",""
"209340","Coramba St at Eileen St","-33.787435","151.248285","","","1",""
"209341","Coramba St at Eileen St","-33.78739","151.248517","","","1",""
"209342","Coramba St before Taree Ave","-33.786426","151.24618","","","1",""
"209343","Coramba St after Taree Ave","-33.786308","151.246233","","","1",""
"209344","Urunga St at Taree Ave","-33.786611","151.245031","","","1",""
"209345","Urunga St at Clontarf St","-33.785519","151.242682","","","1",""
"209346","Urunga St at Clontarf St","-33.785422","151.242784","","","1",""
"209350","Woodbine Street Shops, Woodbine St","-33.786699","151.251148","","","1",""
"209351","Woodbine St opp Woodbine Street Shops","-33.786636","151.250722","","","1",""
"209352","Woodbine St at Nimbin St","-33.785248","151.247802","","","1",""
"209353","Balgowlah North Public School, Manning St","-33.782631","151.247064","","","1",""
"209354","Manning St after Mons Rd","-33.782302","151.244878","","","1",""
"209356","Woodbine St at Kalaui St","-33.787496","151.253234","","","1",""
"209357","Daisy St opp Woodbine St","-33.788447","151.255024","","","1",""
"209358","Myrtle St at Abingdon St","-33.788946","151.255763","","","1",""
"209359","Kitchener St opp Wanganella St","-33.789744","151.258535","","","1",""
"209360","Kitchener St at West St","-33.790084","151.260872","","","1",""
"209361","Balgowlah Rd opp Woodland St","-33.789772","151.263078","","","1",""
"209362","Balgowlah Rd before Condamine St","-33.790055","151.265129","","","1",""
"209363","Balgowlah Rd opp Boyle St","-33.790555","151.268328","","","1",""
"209364","Balgowlah Rd at Boyle St","-33.790664","151.268133","","","1",""
"209365","Balgowlah Rd after Condamine St","-33.790171","151.264825","","","1",""
"209366","Balgowlah Rd after Woodland St","-33.789858","151.262854","","","1",""
"209367","Kitchener St after West St","-33.790195","151.260832","","","1",""
"209368","Kitchener St before Wanganella St","-33.790007","151.259451","","","1",""
"209370","Myrtle St opp Abingdon St","-33.789099","151.25577","","","1",""
"209371","Daisy St at Woodbine St","-33.78838","151.25485","","","1",""
"209372","Woodbine St opp Tottenham St","-33.787735","151.253435","","","1",""
"209373","Lauderdale Ave at King Ave","-33.797148","151.267864","","","1",""
"209374","White St at Condamine St","-33.796856","151.264695","","","1",""
"209376","White St at Jackson St","-33.796573","151.262765","","","1",""
"209378","Woodland St before White St","-33.796042","151.262374","","","1",""
"209379","Woodland St at Lower Beach St","-33.798579","151.261832","","","1",""
"209380","New St at Bungaloe Ave","-33.801379","151.262761","","","1",""
"209381","Bungaloe Ave opp New St","-33.800284","151.262444","","","1",""
"209382","Bungaloe Ave after Lower Beach St","-33.800131","151.262653","","","1",""
"209383","New St at Condamine St","-33.801327","151.263217","","","1",""
"209384","New St opp Nanbaree Reserve","-33.801568","151.264772","","","1",""
"209385","Curban St before New St","-33.80236","151.266342","","","1",""
"209386","Curban St opp Valley Rd","-33.804352","151.266022","","","1",""
"209387","Curban St at Concise St","-33.805704","151.265948","","","1",""
"209388","Bareena Park, Curban St","-33.805896","151.261943","","","1",""
"209390","Ernest St after Lewis St","-33.804451","151.257903","","","1",""
"209391","Ernest St before Beatrice St","-33.804343","151.257134","","","1",""
"209392","Beatrice St opp Gordon St","-33.805465","151.256522","","","1",""
"209393","10 Beatrice St","-33.808137","151.256011","","","1",""
"209394","Beatrice St at Moore St","-33.809386","151.255781","","","1",""
"209395","Alma St at Woodland St","-33.809321","151.258694","","","1",""
"209396","Woodland St after Alder St","-33.808623","151.259404","","","1",""
"209397","Woodland St opp Bareena Dr","-33.807012","151.25993","","","1",""
"209398","Woodland St before Ernest St","-33.805159","151.260281","","","1",""
"209399","Woodland St after Ernest St","-33.805136","151.260447","","","1",""
"209411","Balgowlah Rd opp Hill St","-33.790787","151.270013","","","1",""
"209412","Manly Golf Club, Balgowlah Rd","-33.791136","151.272661","","","1",""
"209413","Balgowlah Rd opp Suwarrow St","-33.791095","151.275621","","","1",""
"209414","Arthur St at Francis St","-33.791566","151.279001","","","1",""
"209415","Birkley Rd at Arthur St","-33.79215","151.281095","","","1",""
"209416","Arthur St at Francis St","-33.79167","151.278817","","","1",""
"209417","Balgowlah Rd before Suwarrow St","-33.791093","151.2766","","","1",""
"209418","Balgowlah Rd opp Manly Golf Club","-33.791366","151.273148","","","1",""
"209419","Balgowlah Rd at Hill St","-33.79097","151.270218","","","1",""
"209420","Lauderdale Ave opp Woods Pde","-33.799074","151.275157","","","1",""
"209421","Lauderdale Ave at Bolingbroke Pde","-33.798793","151.273534","","","1",""
"209422","Lauderdale Ave opp Rosedale Ave","-33.798052","151.27127","","","1",""
"209423","79 Lauderdale Ave","-33.797492","151.27003","","","1",""
"209424","Lauderdale Ave opp King Ave","-33.797039","151.26787","","","1",""
"209425","Lauderdale Ave opp 79","-33.79737","151.270028","","","1",""
"209426","Lauderdale Ave after Rosedale Ave","-33.797969","151.271657","","","1",""
"209427","Lauderdale Ave opp Bolingbroke Pde","-33.798652","151.273557","","","1",""
"209428","Lauderdale Ave at Woods Pde","-33.7991","151.275556","","","1",""
"209429","Manly West Public School, Hill St","-33.792049","151.269856","","","1",""
"209430","Fairlight St at Woods Pde","-33.797271","151.276458","","","1",""
"209431","Fairlight St before Bolingbroke Pde","-33.797036","151.274816","","","1",""
"209432","Hilltop Cres at Fairlight St","-33.796604","151.272938","","","1",""
"209433","Hilltop Cres at Krui St","-33.795753","151.270584","","","1",""
"209434","Hill St at Hilltop Cres","-33.795282","151.269172","","","1",""
"209435","Hilltop Cres at Austin St","-33.795625","151.270973","","","1",""
"209436","Hilltop Cres opp Fairlight St","-33.796706","151.273424","","","1",""
"209437","Fairlight St at Woods Pde","-33.797061","151.275876","","","1",""
"209438","Sydney Rd opp Crescent St","-33.796105","151.277775","","","1",""
"209440","Sydney Rd opp Cohen St","-33.795818","151.275583","","","1",""
"209441","Sydney Rd at Bellevue St","-33.795099","151.273161","","","1",""
"209442","Sydney Rd at Austin St","-33.795098","151.271415","","","1",""
"209443","Sydney Rd at Austin St","-33.794934","151.271597","","","1",""
"209444","Sydney Rd at Brisbane St","-33.795047","151.273733","","","1",""
"209445","Sydney Rd at Cohen St","-33.795613","151.27545","","","1",""
"209446","Sydney Rd at Thornton St","-33.795885","151.277032","","","1",""
"209511","Manly Wharf, Belgrave St, Stand E","-33.797588","151.28474","","","1",""
"209512","Manly Aquatic Centre, Kenneth Rd","-33.788699","151.278862","","","1",""
"209513","Manly Wharf, Belgrave St, Stand F","-33.797845","151.284693","","","1",""
"209515","Quarantine Station, North Head Scenic Dr","-33.81226","151.29426","","","1",""
"209516","Manly Wharf, Belgrave St, Stand G","-33.798036","151.284649","","","1",""
"209519","Manly Wharf, West Promenade, Stand J","-33.79783","151.284269","","","1",""
"209520","Francis St at Balgowlah Rd","-33.790245","151.278637","","","1",""
"209521","Manly Village Public School, Victoria Pde","-33.799807","151.2878","","","1",""
"209522","Manly Village Public School, Victoria Pde","-33.799604","151.288117","","","1",""
"209523","Manly Wharf, West Esplanade, Stand A","-33.798826","151.283468","","","1",""
"209524","Birkley Rd opp Arthur St","-33.792302","151.281239","","","1",""
"209526","The Crescent at Laurence St","-33.79879","151.277839","","","1",""
"209527","The Crescent at Margaret St","-33.799374","151.277036","","","1",""
"209528","West Esplanade opp Manly Art Gallery","-33.79824","151.281934","","","1",""
"209529","Augusta Rd at Birkley Rd","-33.793157","151.281175","","","1",""
"209530","Augusta Rd at Quinton Rd","-33.793129","151.281718","","","1",""
"209531","Quinton Rd at Raglan St","-33.794866","151.281858","","","1",""
"209532","Raglan St opp Manly Oval","-33.795082","151.282514","","","1",""
"209533","Raglan St before Pittwater Rd","-33.795411","151.284696","","","1",""
"209534","Fairlight St at Laurence St","-33.797593","151.278425","","","1",""
"209535","Fairlight St opp Laurence St","-33.797429","151.278333","","","1",""
"209536","LM Graham Reserve, Balgowlah Rd","-33.790167","151.27814","","","1",""
"209537","Sydney Rd opp Ivanhoe Park","-33.796591","151.282841","","","1",""
"209538","Sydney Rd opp Birkley Rd","-33.796194","151.280576","","","1",""
"209539","Sydney Rd opp George St","-33.795945","151.279901","","","1",""
"209540","Ivanhoe Park, Sydney Rd","-33.796415","151.282713","","","1",""
"209541","Manly Tennis Club, Belgrave St","-33.795874","151.285091","","","1",""
"209542","Pittwater Rd opp Steinton St","-33.793517","151.28542","","","1",""
"209543","Pittwater Rd at Pine St","-33.790894","151.285117","","","1",""
"209544","Pittwater Rd opp Collingwood St","-33.788054","151.284476","","","1",""
"209545","Pittwater Rd before Balgowlah Rd","-33.786978","151.282277","","","1",""
"209546","Keirle Park, Pittwater Rd","-33.785275","151.280961","","","1",""
"209547","Pittwater Rd opp Keirle Park","-33.785225","151.281209","","","1",""
"209548","Pittwater Rd after Balgowlah Rd","-33.786957","151.283228","","","1",""
"209549","Pittwater Rd after Collingwood St","-33.788153","151.284676","","","1",""
"209550","Pittwater Rd at Pine St","-33.790396","151.285171","","","1",""
"209551","Pittwater Rd at Carlton St","-33.792487","151.28563","","","1",""
"209552","Pittwater Rd at Raglan St","-33.795334","151.285271","","","1",""
"209554","North Steyne opp Carlton St","-33.792582","151.287042","","","1",""
"209555","Pine St opp North Steyne SLSC","-33.790472","151.286871","","","1",""
"209556","North Steyne at Pacific St","-33.788354","151.28723","","","1",""
"209557","North Steyne opp Queenscliff SLSC","-33.786349","151.287549","","","1",""
"209558","Queenscliff SLSC, North Steyne","-33.785746","151.287594","","","1",""
"209559","North Steyne opp Ceramic Lane","-33.78829","151.287462","","","1",""
"209560","North Steyne SLSC, Pine St","-33.790708","151.287081","","","1",""
"209561","North Steyne at Carlton St","-33.792509","151.286901","","","1",""
"209563","Stella Maris College, Collingwood St, Stand A","-33.786885","151.285865","","","1",""
"209564","Stella Maris College, Collingwood St, Stand B","-33.786797","151.286028","","","1",""
"209565","Stella Maris College, Eurobin St, Stand C","-33.786616","151.286","","","1",""
"209566","Stella Maris College, Eurobin St, Stand D","-33.786524","151.285839","","","1",""
"209568","Stella Maris College, Eurobin St, Stand E","-33.78644","151.285705","","","1",""
"209569","Andrew Boy Charlton Aquatic Centre, Kenneth Rd","-33.788551","151.278891","","","1",""
"209570","Manly Hospital, Darley Rd","-33.805213","151.294102","","","1",""
"209571","St Pauls College, Darley Rd","-33.805155","151.29304","","","1",""
"209572","Manly Oval, Raglan St","-33.795314","151.283335","","","1",""
"209574","Quinton Rd at Raglan St","-33.794737","151.281687","","","1",""
"209576","North Steyne opp Raglan St","-33.796055","151.287756","","","1",""
"209577","North Head Scenic Dr opp North Head Sanctuary","-33.818397","151.295021","","","1",""
"209578","Manly Wharf, West Esplanade, Stand B","-33.798912","151.283646","","","1",""
"209579","Manly Wharf, East Esplanade, Stand C","-33.799428","151.284558","","","1",""
"209581","Manly Wharf, West Esplanade, Stand D","-33.799009","151.284206","","","1",""
"209582","Addison Rd at Osborne Rd","-33.8035","151.288216","","","1",""
"209584","Darley Rd opp Manly Hospital","-33.80524","151.293457","","","1",""
"209585","Stuart St at Cove Ave","-33.803935","151.285316","","","1",""
"209586","Manly Wharf Hotel, East Esplanade","-33.800125","151.285727","","","1",""
"209587","North Head Scenic Rd opp Collins Beach Rd","-33.808569","151.296689","","","1",""
"209589","Addison Rd at Darley Rd","-33.802678","151.289352","","","1",""
"209590","Darley Rd opp Marshall St","-33.804398","151.291122","","","0",""
"209591","Darley Rd opp Vivian St","-33.804058","151.290656","","","0",""
"209592","Stuart St opp Cove Ave","-33.804106","151.285673","","","1",""
"209611","Oliver St before Cavill St","-33.779864","151.281588","","","1",""
"209612","Harbord Rd opp William St","-33.770124","151.278964","","","1",""
"209613","Evans St after Carlton St","-33.776619","151.288696","","","1",""
"209614","Evans St opp Charles St","-33.777579","151.289892","","","1",""
"209615","Evans St before Albert St","-33.776976","151.288936","","","1",""
"209617","Queenscliff Rd opp Greycliffe St","-33.78335","151.286113","","","1",""
"209619","Crown Rd at Bridge St","-33.782876","151.288115","","","1",""
"209620","Crown Rd opp Highview Ave","-33.781965","151.286076","","","1",""
"209621","Crown Reserve Playground, Crown Rd","-33.781193","151.283764","","","1",""
"209622","Dowling St opp Hill St","-33.780311","151.283259","","","1",""
"209623","Dowling St at Lawrence St","-33.778967","151.283716","","","1",""
"209624","Moore Rd at Murray Rd","-33.779013","151.286332","","","1",""
"209625","Moore Rd at Charles St","-33.78","151.287593","","","1",""
"209626","Charles St at Ocean View Rd","-33.778553","151.289413","","","1",""
"209627","Evans St before Carrington Pde","-33.778673","151.291309","","","1",""
"209628","Harbord Diggers, Lumsdaine Dr","-33.78004","151.292997","","","1",""
"209629","Carrington Pde at The Drive","-33.777096","151.293239","","","1",""
"209630","Carrington Pde after Beach St","-33.775533","151.293214","","","1",""
"209631","Stewart House, Carrington Pde","-33.77347","151.292157","","","1",""
"209632","Carrington Pde after Gardere Ave","-33.771547","151.293081","","","1",""
"209633","Carrington Pde at Adina Rd","-33.770269","151.293567","","","1",""
"209634","Adams St at Farnell St","-33.769414","151.292479","","","1",""
"209638","Adams St at Park St","-33.769507","151.288435","","","1",""
"209639","Bennett St after Oliver St","-33.769159","151.286329","","","1",""
"209640","Oliver St after Brighton St","-33.770543","151.28511","","","1",""
"209641","NBSC Freshwater Senior Campus, Harbord Rd","-33.76744","151.279071","","","1",""
"209642","Harbord Public School, Oliver St","-33.772505","151.284748","","","1",""
"209643","Harbord Public School, Wyadra Ave","-33.772953","151.285936","","","1",""
"209644","Foam St after Wyadra Ave","-33.773664","151.287881","","","1",""
"209645","Wyndora Ave before Eric St","-33.775239","151.286896","","","1",""
"209646","Jacka Park, Wyndora Ave","-33.774939","151.284623","","","1",""
"209647","Wyuna Ave at Oliver St","-33.773837","151.283965","","","1",""
"209649","Wyuna Ave at Harbord Rd","-33.77327","151.279538","","","1",""
"209650","Harbord Rd before Wyadra Ave","-33.772518","151.279116","","","1",""
"209651","St John the Baptist Primary School, Johnson St","-33.775231","151.283721","","","1",""
"209652","Wyuna Ave after Harbord Rd","-33.773176","151.280001","","","1",""
"209654","Wyuna Ave at Oliver St","-33.773728","151.284179","","","1",""
"209655","Wyndora Ave opp Jacka Park","-33.77484","151.285073","","","1",""
"209656","Wyndora Ave opp Eric St","-33.775073","151.286766","","","1",""
"209657","Foam St after Wyuna Ave","-33.773792","151.287703","","","1",""
"209658","Wyadra Ave opp Harbord Public School","-33.773","151.285374","","","1",""
"209659","Oliver St at Brighton St","-33.770252","151.284998","","","1",""
"209660","Bennett St before Oliver St","-33.769327","151.28633","","","1",""
"209661","Adams St at Park St","-33.769346","151.288536","","","1",""
"209663","Adams St after Lalchere St","-33.769226","151.292666","","","1",""
"209664","Carrington Pde opp Adina Rd","-33.770544","151.293647","","","1",""
"209665","Carrington Pde opp Gardere Ave","-33.772382","151.29303","","","1",""
"209666","Carrington Pde opp Beach St","-33.774902","151.293133","","","1",""
"209667","Carrington Pde opp The Drive","-33.77671","151.293421","","","1",""
"209668","Lumsdaine Dr opp Harbord Diggers","-33.780185","151.292888","","","1",""
"209669","Evans St before Charles St","-33.778246","151.290531","","","1",""
"209670","Charles St at Ocean View Rd","-33.778755","151.289407","","","1",""
"209671","Charles St at Moore Rd","-33.780018","151.287947","","","1",""
"209672","Moore Rd before Albert St","-33.779006","151.286076","","","1",""
"209673","Lawrence St at Dowling St","-33.778914","151.284004","","","1",""
"209674","Dowling St at Hill St","-33.780363","151.283391","","","1",""
"209675","Crown Rd opp Crown Reserve Playground","-33.781052","151.2838","","","1",""
"209676","Crown Rd at Highview Ave","-33.781857","151.286185","","","1",""
"209677","Crown Rd before Bridge St","-33.782582","151.287796","","","1",""
"209678","Pavilion St at Queenscliff Rd","-33.783507","151.286796","","","1",""
"209681","Queenscliff Rd at Greycliffe St","-33.783079","151.285185","","","1",""
"209682","Queenscliff Rd before Dalley St","-33.782363","151.283581","","","1",""
"209683","Cavill St opp Crown Rd","-33.780931","151.281847","","","1",""
"209684","Oliver St after Pittwater Rd","-33.781034","151.279377","","","1",""
"209685","Cavill St after Oliver St","-33.779107","151.282305","","","1",""
"209686","Lawrence St before Harbord Rd","-33.778503","151.281022","","","1",""
"209687","Harbord Rd opp Wilson St","-33.776956","151.279691","","","1",""
"209688","Harbord Rd at Coles Rd","-33.775294","151.279174","","","1",""
"209689","Harbord Rd at Wyuna Ave","-33.773405","151.279011","","","1",""
"209690","Harbord Rd at William St","-33.769834","151.278693","","","1",""
"209691","NBSC Freshwater Senior Campus, Brighton St","-33.769387","151.280015","","","1",""
"209693","NBSC Freshwater Senior Campus, Bennett St","-33.768667","151.280541","","","1",""
"209694","Harbord Bowling & Recreation Club, Bennett St","-33.768902","151.284118","","","1",""
"209695","Brighton St opp Waratah St","-33.769583","151.281389","","","1",""
"209696","Brighton St before Bennett St","-33.769974","151.284548","","","1",""
"209697","Brighton St at Oliver St","-33.770103","151.284635","","","1",""
"209698","Brighton St after Waratah St","-33.769716","151.281561","","","1",""
"209699","Church of Jesus Christ, Harbord Rd","-33.77161","151.279392","","","1",""
"209712","Pittwater Rd at Hadleigh Ave","-33.744613","151.298788","","","1",""
"209713","Pittwater Rd before Hay St","-33.743564","151.303015","","","1",""
"209714","Pittwater Rd opp Griffith Park","-33.739314","151.30256","","","1",""
"209715","Pittwater Rd at Ocean Gr","-33.737443","151.302327","","","1",""
"209716","Pittwater Rd opp Brissenden Ave","-33.734881","151.30204","","","1",""
"209717","Collaroy B-Line, Pittwater Rd","-33.731679","151.300906","","","1",""
"209719","Pittwater Rd at Ramsay St","-33.727406","151.299204","","","1",""
"209720","Pittwater Rd at Ramsay St","-33.727133","151.299459","","","1",""
"209722","Collaroy B-Line, Pittwater Rd","-33.731811","151.301239","","","1",""
"209723","Pittwater Rd at Brissenden Ave","-33.734873","151.302344","","","1",""
"209724","Pittwater Rd at Ocean Gr","-33.73704","151.302611","","","1",""
"209725","Pittwater Rd at Anzac Ave","-33.738899","151.302837","","","1",""
"209727","Long Reef Beach, Pittwater Rd","-33.743913","151.303311","","","1",""
"209728","Pittwater Rd opp Hadleigh Ave","-33.744843","151.298812","","","1",""
"209730","South Creek Rd after Toronto Ave","-33.732833","151.27772","","","1",""
"209731","Ambleside Reserve, Ambleside St","-33.730918","151.279972","","","1",""
"209732","Heather St before Kirkstone Rd","-33.730118","151.279947","","","1",""
"209733","Kirkstone Rd opp Carlisle St","-33.728386","151.279648","","","1",""
"209734","Kirkstone Rd at Rose Ave","-33.726936","151.280097","","","1",""
"209735","Rose Ave opp Grasmere Cres","-33.726414","151.282405","","","1",""
"209736","St Rose's Primary School, Rose Ave","-33.726972","151.286406","","","1",""
"209737","Collaroy Plateau Shops, Veterans Pde","-33.727902","151.286524","","","1",""
"209738","Veterans Pde opp Ettalong St","-33.729561","151.286231","","","1",""
"209739","Telopea St before Fuller St","-33.730231","151.286756","","","1",""
"209740","Fuller St at Hall Ave","-33.731137","151.28723","","","1",""
"209741","Hall Ave before Heather St","-33.731251","151.286116","","","1",""
"209744","Veterans Pde opp Collaroy Plateau Shops","-33.727255","151.28649","","","1",""
"209745","Wheeler Heights Public School, Rose Ave","-33.727022","151.285642","","","1",""
"209746","Rose Ave at Berith St","-33.726637","151.283006","","","1",""
"209747","Kirkstone Rd opp Langdale Pl","-33.727802","151.279915","","","1",""
"209748","Heather St opp Ambleside St","-33.730028","151.280093","","","1",""
"209749","Ambleside St at Crummock St","-33.731773","151.278424","","","1",""
"209750","South Creek Rd opp Toronto Ave","-33.732758","151.277913","","","1",""
"209751","Parkes Rd opp Pittwater House School","-33.740627","151.28997","","","1",""
"209752","Parkes Rd opp Westmoreland Ave","-33.73936","151.290965","","","1",""
"209753","Parkes Rd at Orlando Rd","-33.737042","151.290247","","","1",""
"209754","Anzac Ave at Kangaroo Rd","-33.735548","151.290587","","","1",""
"209755","Plateau Rd opp Hilma St","-33.735109","151.292022","","","1",""
"209756","Plateau Rd opp Collaroy Plateau Public School","-33.733636","151.292281","","","1",""
"209757","Aubreen St at Telopea St","-33.731303","151.292482","","","1",""
"209758","Telopea St at Hilma St","-33.731206","151.294533","","","1",""
"209759","Hilma St at Edgecliffe Bvd","-33.729433","151.294984","","","1",""
"209760","Edgecliffe Bvd at Acacia St","-33.726868","151.294903","","","1",""
"209761","Edgecliffe Bvd at Aubreen St","-33.725244","151.293843","","","1",""
"209762","Edgecliffe Bvd at Blandford St","-33.724599","151.292367","","","1",""
"209763","Edgecliffe Bvd at Fuller St","-33.723548","151.288817","","","1",""
"209764","Veterans Pde opp RSL ANZAC Village","-33.723917","151.287283","","","1",""
"209765","Veterans Pde opp Lantana Ave","-33.725159","151.287049","","","1",""
"209766","Veterans Pde opp Rose Ave","-33.726733","151.286732","","","1",""
"209767","Veterans Pde at Lantana Ave","-33.724867","151.286969","","","1",""
"209768","RSL ANZAC Village, Lakeshore Dr","-33.723764","151.282467","","","1",""
"209769","Lantana Lodge, Lantana Ave","-33.724329","151.285022","","","1",""
"209770","Lantana Ave at Veterans Pde","-33.724562","151.286654","","","1",""
"209771","RSL ANZAC Village, Veterans Pde","-33.723917","151.287139","","","1",""
"209772","Edgecliffe Bvd opp Claudare St","-33.723513","151.289539","","","1",""
"209773","Edgecliffe Bvd opp Stella St","-33.724496","151.291781","","","1",""
"209774","Edgecliffe Bvd opp Aubreen St","-33.725315","151.294063","","","1",""
"209775","Edgecliffe Bvd opp Acacia St","-33.726319","151.294814","","","1",""
"209776","Edgecliffe Bvd opp Grevillia St","-33.729314","151.295147","","","1",""
"209777","Hilma St at Telopea St","-33.731126","151.294832","","","1",""
"209778","Telopea St before Aubreen St","-33.731166","151.293011","","","1",""
"209779","Collaroy Plateau Public School, Plateau Rd","-33.733038","151.292583","","","1",""
"209780","Plateau Rd at Hilma St","-33.735061","151.29221","","","1",""
"209781","Anzac Ave at Parkes Rd","-33.735531","151.289663","","","1",""
"209782","Collaroy Park, Parkes Rd","-33.737252","151.290573","","","1",""
"209783","Parkes Rd after Westmoreland Ave","-33.739681","151.290907","","","1",""
"209784","Pittwater House School, Parkes Rd","-33.740958","151.28991","","","1",""
"209785","South Creek Rd opp Pittwater House School","-33.742193","151.291746","","","1",""
"209911","Pittwater Rd at May Rd","-33.756527","151.282278","","","1",""
"209912","Pittwater Rd opp Pacific Pde","-33.754453","151.284067","","","1",""
"209913","Dee Why B-Line, Pittwater Rd","-33.752637","151.286507","","","1",""
"209914","Pittwater Rd at Hawkesbury Ave","-33.74948","151.289513","","","1",""
"209915","Pittwater Rd at Lismore Ave","-33.7474","151.29064","","","1",""
"209916","Pittwater Rd before South Creek Rd","-33.745175","151.293788","","","1",""
"209917","Narraweena Community Centre, Alfred St","-33.751745","151.274398","","","1",""
"209918","Alfred St before Warringah Rd","-33.754378","151.273859","","","1",""
"209919","Pittwater Rd opp South Creek Rd","-33.74541","151.293814","","","1",""
"209920","Pittwater Rd opp Lismore Ave","-33.748362","151.290442","","","1",""
"209921","Dee Why RSL Club, Pittwater Rd","-33.750369","151.289337","","","1",""
"209922","Dee Why Shops, Pittwater Rd","-33.753161","151.286163","","","1",""
"209923","Pittwater Rd after Pacific Pde","-33.754787","151.284103","","","1",""
"209924","Dee Why B-Line, Pittwater Rd","-33.752971","151.286433","","","1",""
"209925","Harbord Rd at Headland Rd","-33.760718","151.280508","","","1",""
"209926","St Luke's Grammar School, Headland Rd","-33.759866","151.283389","","","1",""
"209927","St Luke's Grammar School, Quirk St","-33.759852","151.284202","","","1",""
"209928","Griffin Rd at Abbott Rd","-33.765172","151.294906","","","1",""
"209929","Quirk St opp St Luke's Grammar School","-33.759928","151.284313","","","1",""
"209931","Quirk St at Tango Ave","-33.758571","151.287305","","","1",""
"209932","NBSC Manly Campus, Harbord Rd","-33.76217","151.280246","","","1",""
"209934","Abbott Rd opp Denzil Joyce Oval","-33.763682","151.281425","","","1",""
"209935","Abbott Rd opp Reub Hudson Oval","-33.763963","151.283363","","","1",""
"209936","Pitt Rd at Fairport St","-33.763426","151.286053","","","1",""
"209937","Pitt Rd before Playfair Rd","-33.763093","151.28812","","","1",""
"209938","Pitt Rd at Reid Ave","-33.762685","151.290008","","","1",""
"209939","Pitt Rd opp Granger Ave","-33.762375","151.292072","","","1",""
"209940","Pitt Rd at Griffin Rd","-33.762502","151.295063","","","1",""
"209941","Griffin Rd after Headland Rd","-33.760333","151.295638","","","1",""
"209942","Griffin Rd at Boronia St","-33.757287","151.296163","","","1",""
"209943","The Strand after Pacific Pde","-33.755612","151.296333","","","1",""
"209944","Howard Ave after The Strand","-33.753806","151.295495","","","1",""
"209946","Howard Ave at Avon Rd","-33.753386","151.292491","","","1",""
"209947","Howard Ave opp Walter Gors Park","-33.752964","151.28949","","","1",""
"209948","Howard Ave before Pittwater Rd","-33.752684","151.287382","","","1",""
"209949","Howard Ave after Pittwater Rd","-33.75256","151.287553","","","1",""
"209950","Walter Gors Park, Howard Ave","-33.752925","151.290179","","","1",""
"209952","Howard Ave at Avon Rd","-33.753123","151.291773","","","1",""
"209953","Howard Ave at Clyde Rd","-33.753463","151.294195","","","1",""
"209955","The Strand at Pacific Pde","-33.75585","151.296555","","","1",""
"209956","Griffin Rd after Boronia St","-33.757523","151.296296","","","1",""
"209957","Griffin Rd at Tasman St","-33.760016","151.295901","","","1",""
"209958","Griffin Rd at Pitt Rd","-33.762455","151.29563","","","1",""
"209959","Pitt Rd at Griffin Rd","-33.76265","151.295075","","","1",""
"209960","Pitt Rd before Grainger Ave","-33.762474","151.292354","","","1",""
"209961","Pitt Rd at Ross St","-33.76283","151.290013","","","1",""
"209962","Pitt Rd at Playfair Rd","-33.763228","151.288168","","","1",""
"209963","Pitt Rd opp Fairport St","-33.763587","151.285989","","","1",""
"209964","Reub Hudson Oval, Abbott Rd","-33.764227","151.28388","","","1",""
"209965","Denzil Joyce Oval, Abbott Rd","-33.763907","151.281987","","","1",""
"209966","Parr Ave at Playfair Rd","-33.760748","151.2894","","","1",""
"209967","Parr Ave at Headland Rd","-33.760435","151.291459","","","1",""
"209968","Headland Rd at Wheeler Pde","-33.760291","151.292959","","","1",""
"209969","Wheeler Pde at The Crescent","-33.7577","151.293535","","","1",""
"209970","Wheeler Pde at Pacific Pde","-33.755926","151.293889","","","1",""
"209971","Pacific Pde opp Avon Rd","-33.75544","151.291398","","","1",""
"209972","Pacific Pde at The Crescent","-33.755278","151.290244","","","1",""
"209973","Pacific Pde opp Dee Why Market","-33.754842","151.286913","","","1",""
"209974","St John's Primary School, Alfred St","-33.750763","151.274418","","","1",""
"209975","Dee Why Grand Shopping Centre, Pacific Pde","-33.754572","151.28504","","","1",""
"209976","Pacific Pde opp Sturdee Pde","-33.754881","151.288445","","","1",""
"209977","Pacific Pde opp The Crescent","-33.755172","151.290556","","","1",""
"209978","Pacific Pde at Avon Rd","-33.755328","151.291592","","","1",""
"209979","Avon Rd after Oaks Ave","-33.753857","151.292007","","","1",""
"209980","Pacific Pde opp Wheeler Pde","-33.755615","151.29374","","","1",""
"209981","Pacific Pde at The Strand","-33.755889","151.295702","","","1",""
"209983","Wheeler Pde after Pacific Pde","-33.75622","151.294","","","1",""
"209984","Wheeler Pde opp The Crescent","-33.757673","151.293726","","","1",""
"209985","Wheeler Pde at Headland Rd","-33.760189","151.293436","","","1",""
"209986","Headland Rd at Parr Ave","-33.760404","151.291732","","","1",""
"209987","Parr Ave at Playfair Rd","-33.760862","151.289287","","","1",""
"209988","Playfair Rd before Pitt Rd","-33.762358","151.288802","","","1",""
"209989","Warringah Rd after Victor Rd","-33.7573","151.277397","","","1",""
"209990","Warringah Rd after Pine Ave","-33.75598","151.275784","","","1",""
"209991","Warringah Rd opp Alfred St","-33.755264","151.273895","","","1",""
"209992","Warringah Rd at Consul Rd","-33.754906","151.270843","","","1",""
"209993","Warringah Rd after Northcliffe Ave","-33.754581","151.268143","","","1",""
"209994","Griffin Rd at Pitt Rd","-33.762854","151.295363","","","1",""
"209995","Griffin Rd after Abbott Rd","-33.765172","151.295086","","","1",""
"209996","Fisher Rd at McIntosh Rd","-33.751803","151.285062","","","1",""
"209997","McIntosh Rd opp Vale Ave","-33.750726","151.282286","","","1",""
"209998","McIntosh Rd at Victor Rd","-33.750383","151.279645","","","1",""
"209999","Narraweena Tennis Club, McIntosh Rd","-33.750353","151.277395","","","1",""
"210011","Condamine St after James St","-33.774557","151.266136","","","1",""
"210012","Warringah Mall, Pittwater Rd, Stand C","-33.767105","151.268702","","","1",""
"210013","Allambie Rd before Rodborough Rd","-33.754599","151.243196","","","0",""
"210016","Pittwater Rd at Old Pittwater Rd","-33.762161","151.271589","","","1",""
"210017","Brookvale Oval, Pittwater Rd","-33.761023","151.273717","","","1",""
"210018","Manly Leagues Club, Pittwater Rd","-33.759988","151.278313","","","1",""
"210019","Pittwater Rd at Warringah Rd","-33.758891","151.279861","","","1",""
"210021","Pittwater Rd after Harbord Rd","-33.759221","151.27988","","","1",""
"210022","Pittwater Rd opp Manly Leagues Club","-33.760472","151.278134","","","1",""
"210024","Pittwater Rd opp Brookvale Oval","-33.761257","151.273813","","","1",""
"210025","Pittwater Rd after Chard Rd","-33.763406","151.271666","","","1",""
"210028","Condamine St opp Warringah Golf Club","-33.775848","151.266718","","","1",""
"210030","Mill Park, Pittwater Rd","-33.782552","151.279599","","","1",""
"210032","Pittwater Rd opp Girard St","-33.781315","151.277773","","","1",""
"210033","Pittwater Rd at Riverview Pde","-33.780048","151.275978","","","1",""
"210034","Pittwater Rd opp Western Ave","-33.777869","151.274056","","","1",""
"210035","Pittwater Rd opp Wakefield St","-33.776621","151.272521","","","1",""
"210036","Warringah Recreation Centre, Pittwater Rd","-33.775194","151.270367","","","1",""
"210037","Pittwater Rd opp Sterland Ave","-33.771297","151.268362","","","1",""
"210039","Warringah Mall, Green St","-33.767116","151.267026","","","1",""
"210040","Warringah Mall, Green St","-33.767158","151.267395","","","1",""
"210041","Pittwater Rd at Sterland Ave","-33.770784","151.268711","","","1",""
"210042","Pittwater Rd opp Warringah Recreation Centre","-33.774344","151.270134","","","1",""
"210043","Pittwater Rd opp North Manly Bowling & Recreation Club","-33.77629","151.27234","","","1",""
"210044","Pittwater Rd after Western Ave","-33.777814","151.274286","","","1",""
"210045","Pittwater Rd opp Riverview Pde","-33.780053","151.276411","","","1",""
"210046","Pittwater Rd at Oliver St","-33.781253","151.278124","","","1",""
"210047","Pittwater Rd opp Mill Park","-33.782708","151.280117","","","1",""
"210048","Wyadra Ave after Harbord Rd","-33.771982","151.278206","","","1",""
"210049","Wyadra Ave at Oatway Pde","-33.771305","151.274236","","","1",""
"210050","Wyadra Ave opp Nicholson St","-33.770937","151.271616","","","1",""
"210051","Sterland Ave after Montague St","-33.771215","151.26958","","","1",""
"210053","Wyadra Ave at Nicholson St","-33.770834","151.271637","","","1",""
"210054","Wyadra Ave opp Oatway Pde","-33.771131","151.273783","","","1",""
"210055","Wyadra Ave before Harbord Rd","-33.771872","151.27832","","","1",""
"210056","Oliver St at Pittwater Rd","-33.781482","151.278672","","","1",""
"210061","Sydenham Rd at Pittwater Rd","-33.764063","151.271839","","","1",""
"210062","Winbourne Rd after Mitchell Rd","-33.762324","151.274171","","","1",""
"210063","Winbourne Rd before Carter Rd","-33.7626","151.277083","","","1",""
"210064","Winbourne Rd before Harbord Rd","-33.76291","151.279334","","","1",""
"210065","Harbord Rd at West St","-33.762024","151.280065","","","1",""
"210066","Winbourne Rd opp Carter Rd","-33.762767","151.277345","","","1",""
"210067","Warringah Rd opp McKillop Rd","-33.754426","151.265989","","","1",""
"210068","Warringah Rd before Willandra Rd","-33.755091","151.261804","","","1",""
"210069","Warringah Rd at Willandra Rd","-33.754472","151.260526","","","1",""
"210070","Warringah Rd before O'Connors Rd","-33.753146","151.256209","","","1",""
"210071","Warringah Rd at Goverment Rd","-33.752605","151.252489","","","1",""
"210072","Warringah Rd opp Jones St","-33.75201","151.248312","","","1",""
"210074","Allambie Rd opp Aquatic Dr","-33.756009","151.24413","","","1",""
"210079","Allambie Rd at Inglebar Ave","-33.765629","151.252069","","","1",""
"210080","Allambie Rd after Kirra Rd","-33.766895","151.255233","","","1",""
"210081","Allambie Rd at Kirra Rd","-33.768254","151.25738","","","1",""
"210085","Allambie Rd at Eerawy Rd","-33.774269","151.261334","","","1",""
"210086","Allambie Rd opp Corkery Cres","-33.771836","151.258916","","","1",""
"210087","Allambie Rd opp Corkery Cres","-33.769554","151.258524","","","1",""
"210088","Allambie Rd at Monserra Rd","-33.768284","151.256967","","","1",""
"210089","Allambie Rd after Roosevelt Ave","-33.767198","151.255495","","","1",""
"210090","Allambie Rd opp Inglebar Ave","-33.765929","151.252528","","","1",""
"210091","Allambie Heights Public School, Allambie Rd","-33.76535","151.249622","","","1",""
"210092","Allambie Rd opp Darmour Ave","-33.763855","151.247311","","","1",""
"210093","William Charlton Village, Allambie Rd","-33.760754","151.245628","","","1",""
"210094","Fred Huntley Village, Allambie Rd","-33.759587","151.245182","","","1",""
"210095","Allambie Rd opp Sunlea Pl","-33.757821","151.244998","","","1",""
"210096","Allambie Rd opp Arnhem Rd","-33.756577","151.244817","","","1",""
"210098","Allambie Rd after Rodborough Rd","-33.754134","151.243473","","","1",""
"210099","Allambie Rd at Sunlea Pl","-33.758086","151.245149","","","1",""
"210111","Pittwater Rd at Clarke St","-33.723677","151.298542","","","1",""
"210112","Pittwater Rd at Goodwin St","-33.72114","151.29812","","","1",""
"210113","Narrabeen Lakes Public School, Pittwater Rd","-33.719898","151.297874","","","1",""
"210114","Pittwater Rd before Narrabeen St","-33.717093","151.297368","","","1",""
"210115","Narrabeen B-Line, Pittwater Rd","-33.71357","151.297166","","","1",""
"210116","Pittwater Rd at Nareen Pde","-33.707461","151.296605","","","1",""
"210118","Northern Beaches Community College, Pittwater Rd","-33.70212","151.298213","","","1",""
"210119","Pittwater Rd at Namona St","-33.700255","151.2996","","","1",""
"210120","Warriewood B-Line, Pittwater Rd","-33.697054","151.300905","","","1",""
"210121","Katoa Reserve, Garden St","-33.696796","151.291626","","","1",""
"210122","Jacksons Rd opp Warriewood Square","-33.69707","151.295764","","","1",""
"210123","Progress Park, Garden St","-33.700424","151.295061","","","1",""
"210124","Garden St opp Powderworks Rd","-33.703164","151.296152","","","1",""
"210125","Narrabeen B-Line, Pittwater Rd","-33.713467","151.297416","","","1",""
"210126","Garden St at The Crescent","-33.700085","151.29469","","","1",""
"210127","Garden St opp Katoa Reserve","-33.696811","151.29141","","","1",""
"210128","North Narrabeen Rockpool, Narrabeen Park Pde","-33.701046","151.306141","","","1",""
"210129","North Narrabeen SLSC, Ocean St","-33.705406","151.304012","","","1",""
"210130","Ocean St after Emerald St","-33.707324","151.30306","","","1",""
"210131","Ocean St at Octavia St","-33.70884","151.302318","","","1",""
"210132","Ocean St at Albemarle St","-33.711185","151.301139","","","1",""
"210133","Waterloo St at Ocean St","-33.713543","151.299474","","","1",""
"210134","St Josephs Church, Lagoon St","-33.712883","151.298627","","","1",""
"210135","Waterloo St at Ocean St","-33.713465","151.299713","","","1",""
"210136","Ocean St at Albemarle St","-33.711394","151.300855","","","1",""
"210137","Wesley Mission Narrabeen, Ocean St","-33.70912","151.301967","","","1",""
"210138","Ocean St at Emerald St","-33.706792","151.303142","","","1",""
"210139","Ocean St opp North Narrabeen SLSC","-33.7053","151.30388","","","1",""
"210140","Narrabeen Park Pde opp North Narrabeen Rockpool","-33.701436","151.305727","","","1",""
"210141","North Narrabeen Reserve, Walsh St","-33.698281","151.302746","","","1",""
"210142","Walsh St before Narrabeen Park Pde","-33.699363","151.305829","","","1",""
"210143","Warriewood B-Line, Pittwater Rd","-33.696788","151.301419","","","1",""
"210145","Pittwater Rd opp Namona St","-33.700905","151.299493","","","1",""
"210146","Lakeside Park, Pittwater Rd","-33.70256","151.298234","","","1",""
"210147","Pittwater Rd opp Garden St","-33.705659","151.297407","","","1",""
"210148","Pittwater Rd opp Gondola Rd","-33.708191","151.296602","","","1",""
"210149","Walsh St at Collins St","-33.698373","151.302611","","","1",""
"210150","Pittwater Rd before Robertson St","-33.717929","151.297826","","","1",""
"210152","Pittwater Rd after Goodwin St","-33.721368","151.29842","","","1",""
"210153","Pittwater Rd at Clarke St","-33.723371","151.298798","","","1",""
"210154","Narabeen Lakes Public School, Park St","-33.720672","151.296752","","","1",""
"210155","Garden St at Powderworks Rd","-33.703051","151.295926","","","1",""
"210156","Narrabeen Sports High School, Namona St","-33.699917","151.298044","","","1",""
"210157","Narabeen North Public School, Namona St","-33.699792","151.298036","","","1",""
"210158","Narrabeen Sports High School, Namona St","-33.699921","151.298066","","","1",""
"210159","Narabeen North Public School, Namona St","-33.699765","151.297831","","","1",""
"210171","Elanora Heights Community Centre, Kalang Rd","-33.697336","151.28045","","","1",""
"210172","Kalang Rd after Allington Cres","-33.699275","151.280476","","","1",""
"210173","Kalang Rd at Elanora Rd","-33.700595","151.279435","","","1",""
"210179","Elanora Rd opp Coolangatta Ave","-33.701416","151.280746","","","0",""
"210180","Anana Rd opp Elanora Rd","-33.701865","151.282549","","","1",""
"210181","Anana Rd before Rickard Rd","-33.704369","151.286913","","","1",""
"210182","Rickard Rd after Venetian Rd","-33.708272","151.292662","","","1",""
"210184","Narrabeen Shops, Pittwater Rd","-33.713935","151.297441","","","1",""
"210185","Waterloo St before Pittwater Rd","-33.713015","151.297877","","","1",""
"210188","Rickard Rd opp Venetian Rd","-33.708412","151.292314","","","1",""
"210189","Anana Rd after Rickard Rd","-33.704729","151.286819","","","1",""
"210190","Anana Rd after Elanora Rd","-33.70194","151.282075","","","1",""
"210191","Elanora Rd before Coolangatta Ave","-33.701606","151.280774","","","1",""
"210192","Kalang Rd after Elanora Rd","-33.700299","151.279538","","","1",""
"210193","Kalang Rd opp Allington Cres","-33.699275","151.280271","","","0",""
"210194","Kalang Rd opp Elanora Heights Community Centre","-33.697396","151.280243","","","1",""
"210195","Kalang Rd at St Andrews Gate","-33.696231","151.279788","","","1",""
"210211","Pittwater Rd before Warriewood Rd","-33.692746","151.304153","","","1",""
"210212","Warriewood Rd after Vineyard St","-33.679473","151.292282","","","1",""
"210214","Warriewood Rd opp Brands Lane","-33.684947","151.296524","","","1",""
"210215","Warriewood Rd after Manooka Pl","-33.685925","151.298486","","","1",""
"210216","Warriewood Rd before Alameda Way","-33.686696","151.300275","","","1",""
"210217","Warriewood Rd at Macedon Pl","-33.689793","151.301147","","","1",""
"210218","Macpherson St after Boondah Rd","-33.689634","151.296051","","","1",""
"210219","Macpherson St before Fantail Ave","-33.687901","151.293672","","","1",""
"210220","Macpherson St before Garden St","-33.685932","151.29113","","","1",""
"210221","Mater Maria College","-33.683909","151.285246","","","1",""
"210222","Macpherson St before Casuarina Dr","-33.683448","151.287994","","","1",""
"210223","Macpherson St opp Lomandra Way","-33.684357","151.289407","","","1",""
"210224","Garden St after Macpherson St","-33.687432","151.28964","","","1",""
"210225","Garden St at Shearwater Dr","-33.689108","151.289308","","","1",""
"210226","Garden St opp Opal Seaside Aged Care","-33.69199","151.288724","","","1",""
"210227","Garden St opp Irrawong Rd","-33.69389","151.288838","","","1",""
"210228","Warriewood Square, Jacksons Rd","-33.696938","151.2958","","","1",""
"210229","Nelson Heather Senior Citizens Centre, Jacksons Rd","-33.697462","151.299711","","","1",""
"210230","Jacksons Rd opp Nelson Heather Senior Citizens Centre","-33.697614","151.299659","","","1",""
"210231","Garden St after Irrawong Rd","-33.69387","151.288644","","","1",""
"210232","Garden St before Watergum Dr","-33.692665","151.288394","","","1",""
"210233","Garden St at Orchard St","-33.689744","151.288983","","","1",""
"210234","Garden St before Macpherson St","-33.686956","151.289543","","","1",""
"210235","Macpherson St opp Garden St","-33.685772","151.291202","","","1",""
"210236","Macpherson St opp Gahnia Dr","-33.688258","151.294363","","","1",""
"210237","Macpherson St opp Boondah Rd","-33.689598","151.296677","","","1",""
"210238","Warriewood Rd opp Macedon Pl","-33.689783","151.301007","","","1",""
"210239","Warriewood Rd opp Alameda Way","-33.687284","151.300582","","","1",""
"210240","Warriewood Rd opp Manooka Pl","-33.685885","151.298039","","","1",""
"210241","Warriewood Rd after Moriac St","-33.683494","151.295848","","","1",""
"210242","Warriewood Rd opp Moriac St","-33.6832","151.295693","","","1",""
"210243","Warriewood Rd after Valley View Cct","-33.681889","151.293818","","","1",""
"210244","Warriewood Rd after Harris St","-33.679572","151.29213","","","1",""
"210246","Warriewood SLSC, Narrabeen Park Pde","-33.692697","151.308267","","","1",""
"210247","Sydney Rd opp Arnott Cres","-33.694488","151.309485","","","1",""
"210248","23 Sydney Rd","-33.697415","151.307973","","","1",""
"210249","Sydney Rd at Narrabeen Park Pde","-33.699123","151.307375","","","1",""
"210250","Sydney Rd opp Narrabeen Park Pde","-33.698913","151.307291","","","1",""
"210251","28 Sydney Rd","-33.697178","151.307923","","","1",""
"210252","Sydney Rd at Arnott Cres","-33.694492","151.309322","","","1",""
"210253","Narrabeen Park Pde opp Warriewood SLSC","-33.692757","151.308072","","","1",""
"210254","Narrabeen Park Pde opp Warriewood Beach","-33.691931","151.307365","","","1",""
"210256","Pittwater Rd at Arnott Cres","-33.693834","151.303703","","","1",""
"210262","Ponderosa Pde opp Apollo St","-33.679217","151.288353","","","1",""
"210263","Ponderosa Pde after Jubilee Ave","-33.677219","151.289133","","","1",""
"210264","Ponderosa Pde before Jubilee Ave","-33.677375","151.289195","","","1",""
"210265","Ponderosa Pde at Apollo St","-33.679268","151.288511","","","1",""
"210267","Warriewood Rd before Pittwater Rd","-33.692016","151.304019","","","0",""
"210311","Barrenjoey Rd after Darley St","-33.676343","151.308644","","","1",""
"210312","Barrenjoey Rd at Bassett St","-33.674045","151.310607","","","1",""
"210313","Barrenjoey Rd at Waterview St","-33.67106","151.313266","","","1",""
"210314","Barrenjoey Rd opp Waterview St","-33.671753","151.313212","","","1",""
"210315","Barrenjoey Rd opp Bassett St","-33.674195","151.310814","","","1",""
"210316","Barrenjoey Rd before Darley St","-33.676563","151.308939","","","1",""
"210318","Mona Vale B-Line, Barrenjoey Rd","-33.677752","151.304356","","","1",""
"210319","Pittwater Rd at Elimatta Rd","-33.688781","151.304686","","","1",""
"210320","Pittwater Rd opp Coronation St","-33.687197","151.304384","","","1",""
"210321","Pittwater Rd at Rowan St","-33.683001","151.303292","","","0",""
"210322","Pittwater Rd opp Mona Vale Bowling Club","-33.680797","151.3027","","","1",""
"210323","Mona Vale B-Line, Barrenjoey Rd","-33.677099","151.305262","","","1",""
"210327","Bayview Golf Course, Pittwater Rd","-33.671065","151.302253","","","1",""
"210328","Pittwater Rd opp Pittwater High School","-33.668848","151.301308","","","1",""
"210329","Pittwater Rd opp Cabbage Tree Rd","-33.666728","151.301235","","","1",""
"210330","Pittwater High School, Pittwater Rd","-33.669694","151.302002","","","1",""
"210331","Pittwater Rd opp Bayview Golf Course","-33.671137","151.302442","","","1",""
"210338","Pittwater Rd opp Park St","-33.675171","151.303347","","","1",""
"210339","Pittwater Place Shopping Centre, Park St","-33.67645","151.305167","","","1",""
"210340","Mona Vale Rd before Bungan St","-33.678144","151.300593","","","1",""
"210341","Mona Vale Public School, Waratah St","-33.677001","151.301815","","","1",""
"210342","Mona Vale Public School, Waratah St","-33.676566","151.301184","","","1",""
"210343","Mona Vale Public School, Waratah St","-33.676198","151.300652","","","1",""
"210344","Waratah St before Vesper St","-33.675111","151.299136","","","1",""
"210345","Waratah St before Maxwell St","-33.673291","151.296481","","","1",""
"210346","Maxwell St at Katrina Ave","-33.671839","151.296995","","","1",""
"210347","Parkland Rd at Peita Cres","-33.671685","151.294601","","","1",""
"210348","Parkland Rd opp Reserve Lane","-33.670749","151.292066","","","1",""
"210349","Samuel St after Parkland Rd","-33.670363","151.290385","","","1",""
"210350","Samuel St before Whitney St","-33.671366","151.289235","","","1",""
"210351","Samuel St opp Fazzolari Ave","-33.673402","151.290159","","","1",""
"210352","Samuel St before Mona Vale Rd","-33.675617","151.289921","","","1",""
"210353","Pittwater Rd opp Village Park","-33.676954","151.303638","","","0",""
"210354","Pittwater Memorial Bowling Club, Foley St","-33.678271","151.293359","","","1",""
"210356","Samuel St after Mona Vale Rd","-33.675373","151.289783","","","1",""
"210357","Samuel St after Fazzolari Ave","-33.673055","151.289896","","","1",""
"210358","Samuel St before Minmai Rd","-33.671233","151.288911","","","1",""
"210359","Samuel St opp Parkland Rd","-33.670227","151.290299","","","1",""
"210360","Parkland Rd opp Peita Cres","-33.671445","151.29486","","","1",""
"210361","Maxwell St opp Katrina Ave","-33.671967","151.297056","","","1",""
"210362","Waratah St after Maxwell St","-33.673143","151.296508","","","1",""
"210363","Waratah St before Dygal St","-33.67516","151.299424","","","1",""
"210364","Waratah St opp Mona Vale Public School","-33.676772","151.30179","","","1",""
"210365","Sacred Heart Primary School, Keenan St","-33.675407","151.301794","","","1",""
"210366","Pittwater High School, Mona St, Stand C","-33.669961","151.302867","","","1",""
"210367","Pittwater High School, Mona St, Stand B","-33.669471","151.303353","","","1",""
"210368","Pittwater High School, Mona St, Stand A","-33.669062","151.30359","","","1",""
"210369","Mona Vale Rd opp Bungan St","-33.678364","151.300472","","","1",""
"210370","Waterview St after Mona St","-33.666878","151.308087","","","1",""
"210371","Waterview St opp Delwood Cl","-33.669628","151.310094","","","1",""
"210372","Waterview St before Crescent Rd","-33.670468","151.311636","","","1",""
"210373","Waterview St opp Bellevarde Pde","-33.670617","151.312985","","","1",""
"210374","Waterview St at Barrenjoey Rd","-33.670806","151.313054","","","1",""
"210375","Waterview St opp Crescent Rd","-33.670533","151.311827","","","1",""
"210376","Waterview St at Delwood Cl","-33.669679","151.309959","","","1",""
"210377","Waterview St at Mona St","-33.666684","151.307739","","","1",""
"210378","Pittwater Rd opp Turimetta St","-33.682239","151.303358","","","1",""
"210379","Pittwater Rd opp Jenkins St","-33.684703","151.304023","","","1",""
"210380","Pittwater Rd at Coronation St","-33.687373","151.304737","","","1",""
"210381","Mona Vale Hospital, Coronation St","-33.686531","151.306918","","","1",""
"210382","Narrabeen Park Pde opp Cook Tce","-33.687334","151.308745","","","1",""
"210383","Narrabeen Park Pde at Melbourne Ave","-33.690014","151.306663","","","1",""
"210384","Narrabeen Park Pde after Melbourne Ave","-33.689378","151.306582","","","1",""
"210385","Narrabeen Park Pde before Cook Tce","-33.687338","151.308598","","","1",""
"210386","Coronation St opp Mona Vale Hospital","-33.686599","151.307154","","","1",""
"210388","Ponderosa Pde before Macpherson St","-33.682659","151.287894","","","1",""
"210389","Pittwater Rd at Cook Tce","-33.688791","151.30496","","","1",""
"210390","Darley St opp Wilmette Pl","-33.674038","151.304475","","","1",""
"210391","Foley St opp Pittwater Memorial Bowling Club","-33.678475","151.293198","","","1",""
"210394","Vineyard St at Pittwater Rd","-33.680133","151.302226","","","1",""
"210411","Pittwater Rd before Bayview Pl","-33.665953","151.301249","","","1",""
"210412","Pittwater Rd opp Rowland Reserve","-33.663083","151.301535","","","1",""
"210413","Pittwater Rd opp Bayview Park","-33.661049","151.300571","","","1",""
"210414","Pittwater Rd opp Gibson Marina","-33.659498","151.297431","","","1",""
"210415","Pittwater Rd at Loquat Valley Rd","-33.657759","151.295907","","","1",""
"210416","Pittwater Rd at Sunnyridge Pl","-33.656687","151.294393","","","1",""
"210417","Pittwater Rd at Kananook Ave","-33.655496","151.293181","","","1",""
"210418","Pittwater Rd opp Riddle Reserve","-33.654493","151.2901","","","1",""
"210419","Riddle Reserve, Pittwater Rd","-33.65431","151.290098","","","1",""
"210420","Pittwater Rd opp Kananook Ave","-33.655133","151.293047","","","1",""
"210421","Pittwater Rd opp Sunnyridge Pl","-33.656696","151.294587","","","1",""
"210422","Pittwater Rd opp Loquat Valley Rd","-33.658497","151.296265","","","1",""
"210423","Gibson Marina, Pittwater Rd","-33.659412","151.297495","","","1",""
"210424","Bayview Park, Pittwater Rd","-33.661057","151.300903","","","1",""
"210425","Rowland Reserve, Pittwater Rd","-33.663601","151.301744","","","1",""
"210426","Cabbage Tree Rd opp Beaumont Cres","-33.666663","151.300267","","","1",""
"210427","Cabbage Tree Rd opp Binnowee Pl","-33.667125","151.298469","","","1",""
"210428","Annam Rd after Cabbage Tree Rd","-33.666629","151.296004","","","1",""
"210429","Annam Rd opp Utingu Pl","-33.665329","151.294909","","","1",""
"210430","Annam Rd opp Konda Cl","-33.666023","151.29265","","","1",""
"210431","Annam Rd before Cabbage Tree Rd","-33.667951","151.294934","","","1",""
"210432","Parkland Rd opp Whitney St","-33.671089","151.292705","","","1",""
"210511","Pittwater Rd at Bakers Rd","-33.652724","151.288498","","","1",""
"210512","Pittwater Rd opp The Quays Marina","-33.650967","151.287908","","","1",""
"210513","2141 Pittwater Rd","-33.649344","151.286607","","","1",""
"210514","Pittwater Rd opp McCarrs Creek Reserve","-33.646357","151.285768","","","1",""
"210515","McCarrs Creek Rd opp HolmePort Marina","-33.645976","151.281619","","","1",""
"210516","McCarrs Creek Rd opp McCarrs Creek Reserve","-33.647285","151.27971","","","1",""
"210517","McCarrs Creek Rd opp 46","-33.650312","151.278951","","","1",""
"210518","137 McCarrs Creek Rd","-33.653021","151.28103","","","1",""
"210519","141 McCarrs Creek Rd","-33.653899","151.281683","","","1",""
"210520","167 McCarrs Creek Rd","-33.654289","151.280713","","","1",""
"210521","McCarrs Creek Rd opp Walker Pl","-33.653248","151.279104","","","1",""
"210522","201 McCarrs Creek Rd","-33.654385","151.277191","","","1",""
"210523","McCarrs Creek Rd opp 184","-33.656339","151.275359","","","1",""
"210524","McCarrs Creek Rd opp 230","-33.65912","151.27318","","","1",""
"210525","188 McCarrs Creek Rd","-33.656626","151.275049","","","1",""
"210526","152 McCarrs Creek Rd","-33.654298","151.277071","","","1",""
"210527","McCarrs Creek Rd after Walker Pl","-33.653172","151.279252","","","1",""
"210528","McCarrs Creek Rd opp 167","-33.654067","151.280917","","","1",""
"210529","McCarrs Creek Rd opp 159","-33.653857","151.281475","","","1",""
"210530","76 McCarrs Creek Rd","-33.652128","151.280386","","","1",""
"210531","50 McCarrs Creek Rd","-33.650607","151.278965","","","1",""
"210532","McCarrs Creek Reserve, McCarrs Creek Rd","-33.646986","151.279623","","","1",""
"210535","Church Point Wharf, Pittwater Rd","-33.644993","151.284814","","","1",""
"210536","McCarrs Creek Reserve, Pittwater Rd","-33.646251","151.285887","","","1",""
"210537","Pittwater Rd opp 2137","-33.649567","151.286845","","","1",""
"210538","Pittwater Rd opp Bakers Rd","-33.653119","151.288831","","","1",""
"210539","Pittwater Rd opp Church Point Wharf","-33.645008","151.28455","","","1",""
"210611","Barrenjoey Rd after Phillip Rd","-33.669837","151.315517","","","1",""
"210612","Barrenjoey Rd opp Karloo Pde","-33.666213","151.316993","","","1",""
"210613","Barrenjoey Rd after Beaconsfield St","-33.660974","151.316373","","","1",""
"210615","Barrenjoey Rd before Robertson Rd","-33.655331","151.319923","","","1",""
"210616","Barrenjoey Rd at Neptune Rd","-33.65169","151.322943","","","1",""
"210617","Barrenjoey Rd after The Serpentine","-33.647005","151.32581","","","1",""
"210618","Newport Surf Club, Neptune Rd","-33.652416","151.322938","","","1",""
"210619","Barrenjoey Rd after Bramley Ave","-33.655736","151.319764","","","1",""
"210621","Barrenjoey Rd after Trevor Rd","-33.658938","151.317387","","","1",""
"210622","Barrenjoey Rd after Queens Pde","-33.660395","151.31688","","","1",""
"210623","Barrenjoey Rd before Karloo Pde","-33.665265","151.316925","","","1",""
"210625","Barrenjoey Rd at Hillcrest Ave","-33.66985","151.31602","","","1",""
"210626","Beaconsfield St after Barrenjoey Rd","-33.66222","151.315072","","","1",""
"210627","Beaconsfield St opp Newport Public School","-33.661184","151.31242","","","1",""
"210628","Kalinya St before Queens Pde","-33.660203","151.309212","","","1",""
"210630","Gladstone Rd at King St","-33.658266","151.311219","","","1",""
"210631","Gladstone Rd at Woolcott St","-33.658227","151.314164","","","1",""
"210632","Newport Park, Gladstone Rd","-33.658217","151.317133","","","1",""
"210633","Gladstone Rd opp Newport Park","-33.658348","151.317025","","","1",""
"210634","Gladstone Rd opp Woolcott St","-33.658375","151.314881","","","1",""
"210635","Trafalgar Park, Gladstone St","-33.658404","151.311721","","","1",""
"210636","Kalinya St opp Dearin Reserve","-33.658741","151.309353","","","1",""
"210637","Kalinya St after Queens Pde","-33.66033","151.30943","","","1",""
"210638","Newport Public School, Beaconsfield St","-33.661063","151.312514","","","1",""
"210639","Newport Public School, Beaconsfield St","-33.661385","151.313399","","","1",""
"210640","Beaconsfield St at Barrenjoey Rd","-33.662299","151.315668","","","1",""
"210645","Seaview Ave opp Foamcrest Ave","-33.654579","151.318128","","","1",""
"210649","Barrenjoey Rd before Gladstone St","-33.658924","151.317057","","","1",""
"210650","Newport Bowling Club, Palm Rd","-33.65759","151.318478","","","1",""
"210651","Palm Rd before Myola Rd","-33.657566","151.320833","","","1",""
"210652","Myola Rd opp Trevor Rd","-33.658388","151.321412","","","1",""
"210653","Myola Rd opp Hollywood Rd","-33.659475","151.321028","","","1",""
"210654","Myola Rd at Queens Pde","-33.659585","151.320839","","","1",""
"210655","Myola Rd at Palm Rd","-33.6574","151.321595","","","1",""
"210657","Queens Pde before Barrenjoey Rd","-33.65997","151.318045","","","1",""
"210658","Queens Pde after Barrenjoey Rd","-33.659863","151.317993","","","1",""
"210712","Barrenjoey Rd opp 490","-33.642","151.330684","","","1",""
"210713","Barrenjoey Rd at Avalon Pde","-33.637003","151.330176","","","1",""
"210714","Barrenjoey Rd at Central Rd","-33.633876","151.330677","","","1",""
"210715","Barrenjoey Rd after Wollstonecraft Ave","-33.630753","151.331098","","","1",""
"210716","Barrenjoey Rd after George St","-33.628693","151.331633","","","1",""
"210717","Barrenjoey Rd after North Avalon Rd","-33.626339","151.33382","","","1",""
"210718","Careel Bay Tennis Club, Barrenjoey Rd","-33.62456","151.333836","","","1",""
"210719","Hitchcock Park, Barrenjoey Rd","-33.621931","151.333209","","","1",""
"210720","Careel Bay Ovals, Barrenjoey Rd","-33.619268","151.331079","","","1",""
"210721","Barrenjoey Rd opp Careel Bay Ovals","-33.619587","151.331851","","","1",""
"210722","Barrenjoey Rd opp Hitchcock Park","-33.621504","151.333272","","","1",""
"210723","Barrenjoey Rd opp Careel Bay Tennis Club","-33.624771","151.334057","","","1",""
"210724","Barrenjoey Rd at North Avalon Rd","-33.626777","151.333723","","","1",""
"210725","Barrenjoey Rd opp George St","-33.629291","151.331379","","","1",""
"210726","Barrenjoey Rd opp Wollstonecraft Ave","-33.631219","151.331268","","","1",""
"210727","Barrenjoey Rd opp Central Rd","-33.634026","151.330898","","","1",""
"210728","Avalon Beach SLSC, Barrenjoey Rd","-33.636666","151.330603","","","1",""
"210729","Barrenjoey Rd after The Crescent","-33.63945","151.331506","","","1",""
"210730","484 Barrenjoey Rd","-33.642169","151.330412","","","1",""
"210731","Barrenjoey Rd opp Old Barrenjoey Rd","-33.642598","151.328193","","","1",""
"210732","Barrenjoey Rd before The Serpentine","-33.646824","151.325759","","","1",""
"210733","Barrenjoey Rd after Old Barrenjoey Rd","-33.642274","151.328218","","","1",""
"210734","Plateau Rd at Bilgola Tce","-33.642788","151.327307","","","1",""
"210735","Plateau Rd before Palmgrove Rd","-33.642523","151.324905","","","1",""
"210736","Plateau Rd before The Outlook","-33.641798","151.322633","","","1",""
"210737","Plateau Rd opp Weetawaa Rd","-33.641256","151.320595","","","1",""
"210738","Daly St before Grandview Dr","-33.646064","151.314731","","","1",""
"210739","Argyle St at Raymond Rd","-33.650618","151.312935","","","1",""
"210740","York Tce after Raymond Rd","-33.649897","151.314037","","","1",""
"210741","York Tce before Grandview Dr","-33.648413","151.314305","","","1",""
"210742","Plateau Rd at Grandview Dr","-33.646164","151.313315","","","1",""
"210743","Bilgola Plateau Public School, Plateau Rd","-33.644261","151.314619","","","1",""
"210744","Plateau Rd at Bilberry Ave","-33.643631","151.31822","","","1",""
"210745","Plateau Rd before Weetawaa Rd","-33.641266","151.320393","","","1",""
"210746","Plateau Rd after The Outlook","-33.641744","151.322856","","","1",""
"210747","Plateau Rd after Palmgrove Rd","-33.642478","151.32511","","","1",""
"210748","Plateau Rd at Old Barrenjoey Rd","-33.642658","151.327608","","","1",""
"210749","Old Barrenjoey Rd before Dress Circle Rd","-33.642393","151.327333","","","1",""
"210750","Avalon Public School, Bellevue Ave","-33.639139","151.326124","","","1",""
"210751","Avalon Public School, Old Barrenjoey Rd","-33.639391","151.327434","","","1",""
"210753","Avalon Public School, Old Barrenjoey Rd","-33.638944","151.327713","","","1",""
"210754","Avalon Pde at Old Barrenjoey Rd","-33.636592","151.329469","","","1",""
"210755","Old Barrenjoey Rd before Barrenjoey Rd","-33.642343","151.327526","","","1",""
"210756","Avalon Pde before Ruskin Rowe","-33.634629","151.324824","","","1",""
"210757","Avalon Pde at Gunjulla Pl","-33.633322","151.321269","","","1",""
"210758","Avalon Pde after Trentwood Park","-33.631564","151.319401","","","1",""
"210760","Hudson Pde at Hilltop Rd","-33.6292","151.317193","","","1",""
"210761","Hudson Rd opp Old Wharf Reserve","-33.630637","151.316006","","","1",""
"210762","61A Hudson Pde","-33.632222","151.315192","","","1",""
"210763","Hudson Pde opp Delecta Ave","-33.634704","151.313557","","","1",""
"210764","119 Hudson Pde","-33.635594","151.312123","","","1",""
"210765","165 Hudson Pde","-33.635824","151.308701","","","1",""
"210766","Hudson Pde opp Taylors Point Rd","-33.636046","151.306135","","","1",""
"210767","Wandeen Rd after Hudson Pde","-33.637046","151.306338","","","1",""
"210768","Wandeen Rd before Mia Pl","-33.637064","151.310699","","","1",""
"210769","Wandeen Rd at Lower Plateau Rd","-33.638204","151.31233","","","1",""
"210770","Bilwara Ave opp Stromboli Pl","-33.639893","151.312589","","","1",""
"210771","Bilwara Ave after Lobby Cres","-33.640581","151.314187","","","1",""
"210772","Bilambee Ave at Bilga Ave","-33.642399","151.315973","","","1",""
"210773","Plateau Rd opp Bilberry Ave","-33.643664","151.317978","","","1",""
"210774","Bilambee Ave opp Bilga Ave","-33.64245","151.315756","","","1",""
"210775","Bilwara Ave at Bilambee Ave","-33.640751","151.314419","","","1",""
"210776","Lower Plateau Rd at Stromboli Pl","-33.639672","151.312419","","","1",""
"210777","Lower Plateau Rd at Wandeen Rd","-33.638654","151.312333","","","1",""
"210778","Wandeen Rd opp Mia Pl","-33.637069","151.310286","","","1",""
"210779","Wandeen Rd at Hudson Pde","-33.637123","151.30601","","","1",""
"210780","Hudson Pde at Taylors Point Rd","-33.635913","151.30636","","","1",""
"210781","142 Hudson Pde","-33.635752","151.308986","","","1",""
"210782","114 Hudson Pde","-33.635619","151.311929","","","1",""
"210783","Hudson Pde at Delecta Ave","-33.634629","151.313457","","","1",""
"210784","60 Hudson Pde","-33.632207","151.314963","","","1",""
"210785","Old Wharf Reserve, Hudson Rd","-33.630414","151.315468","","","1",""
"210786","Hudson Pde opp Hilltop Rd","-33.629056","151.316692","","","1",""
"210787","Riverview Rd opp The Appian Way","-33.628042","151.317079","","","1",""
"210788","Riverview Rd after Paradise Ave","-33.626149","151.317679","","","1",""
"210789","61 Riverview Rd","-33.625513","151.318048","","","1",""
"210791","Riverview Rd opp Trappers Way","-33.622191","151.317456","","","1",""
"210792","Riverview Rd opp Shore Brace","-33.618472","151.316955","","","1",""
"210793","Riverview Rd before Cabarita Rd","-33.616832","151.316783","","","1",""
"210794","30 Cabarita Rd","-33.616762","151.3179","","","1",""
"210795","62 Cabarita Rd","-33.61923","151.31836","","","1",""
"210796","Cabarita Rd opp 63","-33.620588","151.31917","","","1",""
"210797","110 Cabarita Rd","-33.621211","151.319597","","","1",""
"210798","Cabarita Rd before Careel Bay Cres","-33.622164","151.320198","","","1",""
"210799","Cabarita Rd at Careel Bay Cres","-33.622583","151.320907","","","1",""
"210811","Barrenjoey Rd before Currawong Ave","-33.617098","151.328315","","","1",""
"210812","Barrenjoey Rd opp Surf Rd","-33.611284","151.326889","","","1",""
"210813","965 Barrenjoey Rd","-33.60791","151.323473","","","1",""
"210814","981 Barrenjoey Rd","-33.606439","151.322081","","","1",""
"210815","Barrenjoey Rd at Iluka Rd","-33.603339","151.320134","","","1",""
"210816","Barrenjoey Rd at Nabilla Rd","-33.601814","151.319002","","","1",""
"210817","Club Palm Beach, Barrenjoey Rd","-33.600379","151.318967","","","1",""
"210818","Barrenjoey Rd after Illuka Rd","-33.598684","151.319464","","","1",""
"210819","Palm Beach Wharf, Barrenjoey Rd","-33.596069","151.320276","","","1",""
"210820","Observation Point, Barrenjoey Rd","-33.593642","151.319363","","","1",""
"210821","Palm Beach Golf Club, Beach Rd","-33.592404","151.322281","","","1",""
"210822","Ocean Rd opp Palm Beach Rd","-33.596812","151.324161","","","1",""
"210823","Florida Rd at Ocean Pl","-33.598846","151.32346","","","1",""
"210824","Norma Rd at Whale Beach Rd","-33.606423","151.334981","","","1",""
"210825","Ocean Pl at Ocean Rd","-33.598783","151.32455","","","1",""
"210826","Ocean Rd at Palm Beach Rd","-33.59679","151.323986","","","1",""
"210827","Beach Rd opp Palm Beach Golf Club","-33.592469","151.321614","","","1",""
"210828","Barrenjoey Rd opp Observation Point","-33.593599","151.32013","","","1",""
"210829","Barrenjoey Rd opp Palm Beach Wharf","-33.596759","151.320389","","","1",""
"210830","Barrenjoey Rd opp Iluka Rd","-33.59936","151.319414","","","1",""
"210831","Barrenjoey Rd opp Club Palm Beach","-33.600281","151.319162","","","1",""
"210832","Barrenjoey Rd opp Iluka Rd","-33.603248","151.320234","","","1",""
"210833","972 Barrenjoey Rd","-33.605927","151.321907","","","1",""
"210834","944 Barrenjoey Rd","-33.607723","151.323628","","","1",""
"210835","Barrenjoey Rd after Surf Rd","-33.612","151.327257","","","1",""
"210836","Barrenjoey Rd opp Currawong Ave","-33.616512","151.328167","","","1",""
"210837","Norma Rd opp Pacific Rd","-33.6055","151.331779","","","1",""
"210838","Bynya Rd opp Norma Rd","-33.606072","151.329639","","","1",""
"210839","Bynya Rd at Cynthea Rd","-33.604645","151.329403","","","1",""
"210840","Bynya Rd at Pacific Rd","-33.603116","151.328244","","","1",""
"210841","Pacific Rd after Rock Bath Rd","-33.603816","151.33061","","","1",""
"210842","Pacific Rd at Norma Rd","-33.605153","151.331685","","","1",""
"210843","Norma Rd at Whale Beach Rd","-33.606309","151.33509","","","1",""
"2000133","Lang Park, York St","-33.864031","151.20559","","","1",""
"2000136","QVB, York St, Stand E","-33.870151","151.206263","","","1",""
"2000139","Clarence St at Council Pl","-33.870011","151.20535","","","1",""
"2000295","Wynyard Station, Clarence St, Stand T","-33.867021","151.205005","","","0",""
"2000417","Burns Philp Building, Bridge St","-33.863759","151.208219","","","0",""
"2000418","Wynyard Station, Jamison St, Stand U","-33.864439","151.205048","","","0",""
"2065104","Ernest St at West St","-33.826444","151.206503","","","1",""
"2065105","West St at Huntington St","-33.82514","151.207035","","","1",""
"2065106","Ernest St at West St","-33.826606","151.2065","","","1",""
"2065107","North Sydney Boys High, Falcon St","-33.828795","151.207699","","","1",""
"2065108","North Sydney Boys High School, Falcon St","-33.828695","151.207004","","","1",""
"2065109","Falcon St at Alexander St","-33.827949","151.202128","","","1",""
"2065110","Falcon St at West St","-33.828433","151.206235","","","1",""
"2065113","North Sydney Girls High School, David St","-33.829832","151.202607","","","1",""
"2065132","Pacific Hwy before Falcon St","-33.827007","151.200216","","","1",""
"2065135","St Leonards Station, Pacific Hwy, Stand B","-33.823809","151.193373","","","1",""
"2065136","Pacific Hwy opp TAFE St Leonards","-33.821346","151.185681","","","1",""
"2065138","North Sydney Girls High School, Pacific Hwy","-33.830968","151.203345","","","1",""
"2065141","Pacific Hwy opp Campbell St","-33.818412","151.182706","","","1",""
"2065146","Ernest St after Miller St","-33.826926","151.208755","","","1",""
"2066100","Pacific Hwy at Burley St","-33.811475","151.17566","","","1",""
"2066101","Pacific Hwy opp Eric Rd","-33.80891","151.178302","","","1",""
"2066102","Pacific Hwy opp Palmer St","-33.807441","151.179352","","","1",""
"2066226","Pacific Hwy opp Hotham Pde","-33.81606","151.178402","","","1",""
"2066227","Pacific Hwy at Allison Ave","-33.814282","151.177368","","","1",""
"2066228","Lane Cove Interchange, Longueville Rd, Stand C","-33.812497","151.171744","","","1",""
"2067100","Smith St at Eastern Valley Way","-33.785961","151.200728","","","1",""
"2069118","Babbage Rd at Duntroon Ave","-33.779992","151.195842","","","0",""
"2086106","Warringah Rd opp Northern Beaches Hospital","-33.752215","151.231121","","","0",""
"2086107","Northern Beaches Hospital, Warringah Rd","-33.751662","151.231279","","","0",""
"2086108","Yarraman Ave at Bantry Bay Rd","-33.759305","151.231266","","","1",""
"2086109","Yarraman Ave at Rangers Retreat Rd","-33.759038","151.229429","","","1",""
"2086110","Rangers Retreat Rd before Kyogle Pl","-33.757284","151.229518","","","1",""
"2086111","Rangers Retreat Rd opp Garner Ave","-33.755802","151.229835","","","1",""
"2086112","Grattan Cres opp Ararat Reserve","-33.762363","151.229537","","","1",""
"2086113","Rangers Retreat Rd at Fitzpatrick Ave","-33.754425","151.230116","","","1",""
"2086114","Bantry Bay Rd opp Garner Ave","-33.756479","151.232264","","","1",""
"2086115","Fitzpatrick Ave at Bantry Bay Rd","-33.754307","151.232395","","","1",""
"2086116","Fitzpatrick Ave before Hilmer St","-33.754087","151.230795","","","1",""
"2086118","Hilmer St opp Primrose Ave","-33.752642","151.231581","","","1",""
"2086119","Hilmer St before Primrose Ave","-33.752611","151.231773","","","1",""
"2086120","Romford Rd after Frenchs Forest Rd","-33.750245","151.239678","","","1",""
"2086121","Romford Rd after Bimbadeen Cres","-33.748087","151.240122","","","1",""
"2086122","Romford Rd opp Robyn Ave","-33.745974","151.240532","","","1",""
"2086123","Poulton Pde before Romford Rd","-33.745093","151.241381","","","1",""
"2086124","Romford Rd at Robyn Ave","-33.745967","151.240716","","","1",""
"2086125","Romford Rd at Iris St","-33.748161","151.240271","","","1",""
"2088100","Middle Head Rd opp Markham Cl","-33.833815","151.253278","","","1",""
"2088101","Middle Head Rd at Cobbittee St","-33.832979","151.256942","","","1",""
"2088102","Middle Head Rd opp Read Pl","-33.831832","151.25796","","","1",""
"2088103","Balmoral Naval Hospital, Middle Head Rd","-33.827837","151.26108","","","1",""
"2088104","Middle Head Rd opp Balmoral Naval Hospital","-33.828048","151.260581","","","1",""
"2088105","Middle Head Rd before Read Pl","-33.832123","151.257927","","","1",""
"2088106","Headland Park, Middle Head Rd","-33.833577","151.256409","","","1",""
"2088107","Middle Head Rd at Markham Cl","-33.83401","151.253543","","","1",""
"2088108","Middle Head Rd opp Gordon St","-33.833326","151.249971","","","1",""
"2088109","Middle Head Rd at King Max St","-33.833267","151.24645","","","1",""
"2088112","Middle Head Rd at Bradleys Head Rd","-33.832219","151.244716","","","1",""
"2088113","Middle Head Rd opp King Max St","-33.83308","151.246371","","","1",""
"2088114","Middle Head Rd after Gordon St","-33.833223","151.250267","","","1",""
"2088115","Beaconsfield Rd before Wolseley Rd","-33.832327","151.251005","","","1",""
"2088116","Wolseley Rd at Gordon St","-33.831588","151.250374","","","1",""
"2088117","Wolseley Rd at The Tar","-33.832466","151.248443","","","1",""
"2088118","Redan St at Raglan St","-33.830932","151.246691","","","1",""
"2088119","Thompson St at Bradleys Head Rd","-33.839068","151.245326","","","1",""
"2088120","Thompson St at Burrawong Ave","-33.839388","151.247556","","","1",""
"2088121","Kardinia Rd at Burrawong Ave","-33.840909","151.247909","","","1",""
"2088122","Kardinia Rd before Morella Rd","-33.841218","151.250037","","","1",""
"2088123","Kardinia Rd at Morella Rd","-33.842137","151.251272","","","1",""
"2088124","Morella Rd before David St","-33.840762","151.251247","","","1",""
"2088125","Clifton Gardens","-33.83878","151.251019","","","1",""
"2088126","Morella Rd opp David St","-33.840923","151.251487","","","1",""
"2088127","Kardinia Rd after Morella Rd","-33.842188","151.251076","","","1",""
"2088128","Kardinia Rd before Burrawong Ave","-33.841295","151.249572","","","1",""
"2088129","Kardinia Rd before Burrawong Ave","-33.841065","151.247966","","","1",""
"2088130","Thompson St at Burrawong Ave","-33.83954","151.247533","","","1",""
"2088131","Thompson St at Bradleys Head Rd","-33.839181","151.245043","","","1",""
"2088133","Prince Albert St at Lennox St","-33.839434","151.242513","","","1",""
"2088134","Prince Albert St at Elfrida St","-33.837599","151.242849","","","1",""
"2088135","Prince Albert St opp Union St","-33.836294","151.243139","","","1",""
"2088136","Prince Albert St at Queen St","-33.834177","151.243546","","","1",""
"2088137","Prince Albert St opp Queen St","-33.834153","151.243725","","","1",""
"2088138","Prince Albert St at Union St","-33.836255","151.243321","","","1",""
"2088139","Prince Albert St opp Elfrida St","-33.837469","151.243069","","","1",""
"2088140","Prince Albert St at Thompson St","-33.83856","151.242854","","","1",""
"2088141","Raglan St after Military Rd","-33.831364","151.243895","","","1",""
"2088142","Raglan St opp Hamlet Lane","-33.83205","151.242731","","","1",""
"2088143","Raglan St opp Mosman Preparatory School","-33.832904","151.241314","","","1",""
"2088144","Queenwood School for Girls, Queen St","-33.834322","151.242592","","","1",""
"2088145","Raglan St after Queen St","-33.83424","151.239305","","","1",""
"2088146","Raglan St at Calypso Ave","-33.835153","151.238578","","","1",""
"2088147","Raglan St after Calypso Ave","-33.836077","151.237358","","","1",""
"2088148","Raglan St opp Mosman St","-33.837486","151.236126","","","1",""
"2088149","Raglan St opp Musgrave St","-33.83909","151.234908","","","1",""
"2088150","Musgrave St at McLeod St","-33.840307","151.233356","","","1",""
"2088151","23 Musgrave St","-33.841834","151.233189","","","1",""
"2088152","South Mosman Wharf, Musgrave St","-33.842822","151.232951","","","1",""
"2088153","Musgrave St at McLeod St","-33.839997","151.233377","","","1",""
"2088154","Raglan St at Musgrave St","-33.838883","151.234879","","","1",""
"2088155","Raglan St at Mosman St","-33.837569","151.235848","","","1",""
"2088156","Raglan St opp Clanalpine St","-33.836041","151.237169","","","1",""
"2088157","Raglan St opp Calypso Ave","-33.835336","151.238081","","","1",""
"2088158","Raglan St before Canrobert St","-33.834064","151.239213","","","1",""
"2088159","Mosman Preparatory School, Raglan St","-33.833096","151.240731","","","1",""
"2088160","Raglan St at Hamlet Lane","-33.832013","151.242517","","","1",""
"2088161","Raglan St at Military Rd","-33.831139","151.244004","","","1",""
"2088162","Avenue Rd at Carney Lane","-33.830268","151.243819","","","1",""
"2088163","Avenue Rd after Shadforth St","-33.830922","151.241821","","","1",""
"2088164","Avenue Rd opp Archer St","-33.831236","151.240795","","","1",""
"2088165","Avenue Rd at Canrobert St","-33.831905","151.23867","","","1",""
"2088166","Avenue Rd at Upper Avenue Rd","-33.833494","151.236244","","","1",""
"2088167","Avenue Rd opp Reid Park","-33.834751","151.234176","","","1",""
"2088168","Avenue Rd opp Centenary Dr","-33.837056","151.233183","","","1",""
"2088170","Mosman Bay Wharf, Avenue Rd","-33.838044","151.233043","","","1",""
"2088171","Reid Park, Avenue Rd","-33.834929","151.233717","","","1",""
"2088172","Avenue Rd before Rangers Ave","-33.832934","151.236458","","","1",""
"2088173","Avenue Rd after Cowles Rd","-33.832026","151.237802","","","1",""
"2088174","Avenue Rd at Archer St","-33.831163","151.240485","","","1",""
"2088175","Avenue Rd at Gladstone Ave","-33.830509","151.242553","","","1",""
"2088176","Military Rd at Prince St","-33.826413","151.232239","","","1",""
"2088177","Military Rd at Lang St","-33.824861","151.234151","","","1",""
"2088178","Military Rd at Bond St","-33.824264","151.237134","","","1",""
"2088180","Spit Junction B-Line, Spit Rd","-33.824006","151.241476","","","1",""
"2088181","Spit Rd at Awaba St","-33.821361","151.24375","","","1",""
"2088182","Spit Rd opp Parriwi Rd","-33.817222","151.243412","","","1",""
"2088184","Spit Rd before Medusa St","-33.813571","151.243794","","","1",""
"2088185","Spit Rd at Pearl Bay Ave","-33.810215","151.244904","","","1",""
"2088186","Spit Rd opp Medusa St","-33.812872","151.244638","","","1",""
"2088187","Spit Rd opp Bickell Rd","-33.817014","151.243589","","","1",""
"2088188","Spit Rd at Stanton Rd","-33.819143","151.244073","","","1",""
"2088189","Spit Rd after Awaba St","-33.821745","151.243937","","","1",""
"2088192","Military Rd at Wudgong St","-33.824472","151.237744","","","1",""
"2088194","Military Rd opp Prince St","-33.826235","151.232732","","","1",""
"2088195","Wyong Rd at Julian St","-33.818447","151.233697","","","1",""
"2088196","Wyong Rd at Congewoi Rd","-33.81868","151.235295","","","1",""
"2088197","Countess St at Wyong Rd","-33.818825","151.236452","","","1",""
"2088198","Countess St opp Countess Park","-33.819759","151.236255","","","1",""
"2088199","Countess St at Ourimbah Rd","-33.821413","151.235901","","","1",""
"2088200","Medusa St opp Beauty Point Public School","-33.812687","151.241749","","","1",""
"2088201","Medusa St at Pindari Ave","-33.812445","151.240079","","","1",""
"2088202","Pindari Ave opp Euryalus St","-33.810949","151.239854","","","1",""
"2088203","Pindari Ave at Medusa St","-33.812198","151.240036","","","1",""
"2088204","Pindari Ave at Euryalus St","-33.810682","151.239759","","","1",""
"2088205","Pindari Ave at Beauty Point Rd","-33.809767","151.239955","","","1",""
"2088206","Beauty Point Rd opp Marsala St","-33.809189","151.241248","","","1",""
"2088207","Pearl Bay Ave opp Moss Lane","-33.810663","151.242986","","","1",""
"2088208","Pearl Bay Ave at Moss Lane","-33.810782","151.242942","","","1",""
"2088209","Beauty Point Rd at Marsala St","-33.809338","151.241371","","","1",""
"2088210","Pindari Ave at Beauty Point Rd","-33.809772","151.24009","","","1",""
"2088211","Beauty Point Public School, Medusa St","-33.812529","151.241798","","","1",""
"2088212","Medusa St before Spit Rd","-33.812789","151.243678","","","1",""
"2088213","63 Parriwi Rd","-33.811305","151.246373","","","1",""
"2088214","Parriwi Rd after Cyprian St","-33.813089","151.245934","","","1",""
"2088216","Parriwi Rd at Upper Faifax Rd","-33.81709","151.243955","","","1",""
"2088217","Ourimbah Rd at Rosebery St","-33.821941","151.236935","","","1",""
"2088218","Bridgepoint Shopping Centre, Brady St","-33.823717","151.240248","","","1",""
"2088219","Countess St at Ourimbah Rd","-33.821391","151.235723","","","1",""
"2088220","Countess Park, Countess St","-33.81999","151.236021","","","1",""
"2088221","Countess St at Wyong Rd","-33.818839","151.23626","","","1",""
"2088222","Wyong Rd at Congewoi Rd","-33.818855","151.235416","","","1",""
"2088223","Wyong Rd at Macpherson St","-33.818511","151.23303","","","1",""
"2088224","Macpherson St at Zahel Lane","-33.820642","151.232478","","","1",""
"2088225","Middle Harbour Public School, Macpherson St","-33.823051","151.231943","","","1",""
"2088226","Macpherson St opp Montague Rd","-33.82382","151.23176","","","1",""
"2088227","Macpherson St at Prince St","-33.825802","151.231389","","","1",""
"2088229","Mosman Public School, Myahgah Rd","-33.828008","151.240516","","","1",""
"2088234","Spofforth St at Spencer Rd","-33.829806","151.230093","","","1",""
"2088236","Prince Albert St opp Taronga Zoo","-33.840767","151.242417","","","1",""
"2088238","Blessed Sacrament Primary School, Milton Ave","-33.834898","151.244992","","","1",""
"2088239","Cardinal St opp Sacred Heart Primary School","-33.82487","151.23657","","","1",""
"2088240","Chowder Bay Rd opp Sydney Institute of Marine Science","-33.838219","151.256395","","","1",""
"2088243","Spit Junction B-Line, Spit Rd","-33.824148","151.241656","","","1",""
"2088244","Hunter Park, The Esplanade","-33.824365","151.25078","","","0",""
"2093100","Woodland St at Bareena Dr","-33.807183","151.260036","","","1",""
"2093101","Abbott St at Adelaide St","-33.80755","151.258974","","","1",""
"2093102","Balgowlah Heights Public School, Lewis St","-33.806307","151.258083","","","1",""
"2093103","Balgowlah Heights Public School, Lewis St","-33.80649","151.258241","","","1",""
"2093104","Woodland St before Alder St","-33.80864","151.259526","","","1",""
"2093105","Alma St at Moore St","-33.809408","151.258597","","","1",""
"2093107","Condamine St at Sydney Rd","-33.794579","151.264714","","","1",""
"2093109","Beatrice St opp Moore St","-33.809342","151.255634","","","1",""
"2093110","Beatrice St before Gordon St","-33.806994","151.256105","","","1",""
"2093111","Beatrice St opp Ernest St","-33.804505","151.256586","","","1",""
"2093112","Beatrice St at The Walk","-33.802739","151.256895","","","1",""
"2093113","Beatrice St at New St","-33.800739","151.257295","","","1",""
"2093114","Seaview St at Upper Beach St","-33.79839","151.257987","","","1",""
"2093115","Upper Beach St at Kareema St","-33.797966","151.255915","","","1",""
"2093116","NBSC Balgowlah Boys, Maretimo St","-33.7966","151.255206","","","1",""
"2093118","Maretimo St opp NBSC Balgowlah Boys","-33.796598","151.255366","","","1",""
"2093119","Ethel St at Plant St","-33.798123","151.253703","","","1",""
"2093120","Ethel St at Coral St","-33.79795","151.253269","","","1",""
"2093121","Upper Beach St after Maretimo St","-33.797784","151.255481","","","1",""
"2093122","Upper Beach St opp Seaview St","-33.798126","151.257786","","","1",""
"2093123","Seaview St at New St","-33.800394","151.257719","","","1",""
"2093124","Beatrice St opp The Walk","-33.802298","151.257169","","","1",""
"2093125","Beatrice St at Ernest St","-33.804027","151.256806","","","1",""
"2093126","Ernest St before Lewis St","-33.804333","151.258123","","","1",""
"2093127","Ernest St at Radio Ave","-33.804528","151.259346","","","1",""
"2093128","Curban St opp Bareena Park","-33.805797","151.262148","","","1",""
"2093129","Curban St opp Concise St","-33.805639","151.265823","","","1",""
"2093130","Curban St at Valley Rd","-33.804047","151.265858","","","1",""
"2093131","Curban St before New St","-33.802475","151.26615","","","1",""
"2093132","Nanbaree Reserve, New St","-33.80168","151.264594","","","1",""
"2093136","Maretimo St at Sydney Rd","-33.795548","151.255428","","","1",""
"2093137","Lower Beach St at Woodland St","-33.798855","151.261933","","","1",""
"2093138","Woodland St before White St","-33.796909","151.262043","","","1",""
"2093139","White St at Condamine St","-33.796645","151.264139","","","1",""
"2093140","White St before Orchard St","-33.79675","151.264906","","","1",""
"2093141","Sydney Rd after Hill St","-33.795055","151.268672","","","1",""
"2093142","Sydney Rd before Condamine St","-33.794607","151.265636","","","1",""
"2093143","St Cecilia's Catholic Primary School, Wanganella St","-33.796618","151.257624","","","1",""
"2093144","Sydney Rd at Hill St","-33.794926","151.268892","","","1",""
"2093145","Hunter St before St Pauls Rd","-33.788041","151.25018","","","1",""
"2093146","Kenneth Rd at Addiscombe Rd","-33.787519","151.274342","","","1",""
"2093147","Kenneth Rd before Burchmore Rd","-33.78755","151.273431","","","1",""
"2093148","Kenneth Rd before Condamine St","-33.786684","151.267227","","","1",""
"2093150","Koorala St at Quirk Rd","-33.785789","151.269989","","","1",""
"2093151","Roseberry St after Koorala St","-33.785961","151.268178","","","1",""
"2093152","Koorala St before Quirk Rd","-33.785616","151.269851","","","1",""
"2093153","Sunshine St opp Pineview Ave","-33.783983","151.262083","","","1",""
"2093154","Gibbs St before Arana St","-33.783072","151.260871","","","1",""
"2093155","Arana St before King St","-33.782029","151.25912","","","1",""
"2093156","King St at Quinlan Pde","-33.780797","151.259377","","","1",""
"2093157","King St opp Seebrees St","-33.781867","151.262379","","","1",""
"2093158","St Kieran's Church, King St","-33.782739","151.266964","","","1",""
"2093159","King St after Somerville Pl","-33.782702","151.265688","","","1",""
"2093160","King St at Seebees St","-33.782248","151.263149","","","1",""
"2093161","Seebrees St after King St","-33.782784","151.262784","","","1",""
"2093162","Campbell Pde after Condamine St","-33.780796","151.268297","","","1",""
"2093163","NBSC Mackellar Girls, Campbell Pde, Stand K","-33.781542","151.272602","","","1",""
"2093164","NBSC Mackellar Girls, Campbell Pde, Stand J","-33.781512","151.272386","","","1",""
"2093165","NBSC Mackellar Girls, Campbell Pde, Stand I","-33.781481","151.272139","","","1",""
"2093166","NBSC Mackellar Girls, Campbell Pde, Stand H","-33.781434","151.271818","","","1",""
"2093167","NBSC Mackellar Girls, Campbell Pde, Stand G","-33.781418","151.27169","","","1",""
"2093168","NBSC Mackellar Girls, Campbell Pde, Stand F","-33.78139","151.271526","","","1",""
"2093169","NBSC Mackellar Girls, Quirk Rd, Stand D","-33.781561","151.271392","","","1",""
"2093170","NBSC Mackellar Girls, Quirk Rd, Stand C","-33.781669","151.271368","","","1",""
"2093172","NBSC Mackellar Girls, Quirk Rd, Stand B","-33.782199","151.271232","","","1",""
"2093173","NBSC Mackellar Girls, Quirk Rd, Stand A","-33.782333","151.271205","","","1",""
"2093174","Quirk Rd after Innes Rd","-33.784177","151.270782","","","1",""
"2093175","Quirk Rd at Innes Rd","-33.7839","151.270691","","","1",""
"2093176","NBSC Mackellar Girls, Quirk Rd, Stand E","-33.781477","151.271221","","","1",""
"2093177","Campbell Pde before Condamine St","-33.780924","151.268263","","","1",""
"2093178","West Manly Public School, Griffiths St","-33.79253","151.269054","","","1",""
"2093179","Woodland St before Sydney Rd","-33.794482","151.26253","","","1",""
"2093180","St Pauls Rd before Bangaroo St","-33.789292","151.25078","","","1",""
"2093182","Bangaroo St at Serpentine Cres","-33.790261","151.25116","","","1",""
"2093183","Eileen St at Woodbine St","-33.786316","151.249829","","","1",""
"2093184","Urunga St at Dorrigo Ave","-33.78637","151.244824","","","1",""
"2093186","NBSC Balgowlah Boys, Maretimo St, Stand 4","-33.796315","151.255265","","","1",""
"2093188","NBSC Balgowlah Boys, Maretimo St, Stand 2","-33.79588","151.255357","","","1",""
"2095100","North Head Scenic Dr opp Quarantine Station","-33.812193","151.294655","","","0",""
"2096100","Harbord Rd at Wyuna Ave","-33.773509","151.279188","","","1",""
"2096101","Harbord Rd opp Coles Rd","-33.775351","151.279389","","","1",""
"2096102","Harbord Rd after Soldiers Ave","-33.776723","151.279803","","","1",""
"2096103","Lawrence St opp Cavill St","-33.778417","151.281544","","","1",""
"2096104","Oliver St after Lawrence St","-33.778315","151.28347","","","1",""
"2096105","St John the Baptist Primary School, Oliver St","-33.775675","151.283955","","","1",""
"2096106","Oliver St opp Johnson St","-33.775238","151.284229","","","1",""
"2096108","Oliver St at Lawrence St","-33.778456","151.28362","","","1",""
"2096109","Oliver St at Cavill St","-33.779852","151.282598","","","1",""
"2096110","Cavill St before Dalley St","-33.781052","151.28199","","","1",""
"2096111","Queenscliff Rd at Dalley St","-33.782281","151.283803","","","1",""
"2096112","Queenscliff Rd opp Greycliffe St","-33.782986","151.285366","","","1",""
"2096113","Wyadra Ave at Hubert St","-33.772222","151.280392","","","1",""
"2096114","Wyadra Ave opp Hubert St","-33.772298","151.280023","","","1",""
"2096115","Oliver St at Wyadra Ave","-33.773032","151.284451","","","1",""
"2096116","Oliver St before Wyuna Ave","-33.773412","151.284567","","","1",""
"2096117","Carlton St at Wyndora Ave","-33.775702","151.288377","","","1",""
"2096118","Wyndora Ave at Carlton St","-33.775304","151.28832","","","1",""
"2099100","McIntosh Rd after Mundara Pl","-33.750111","151.275543","","","1",""
"2099101","McIntosh Rd opp Narraweena Public School","-33.749879","151.274057","","","1",""
"2099102","South Creek Rd at Cumberland Ave","-33.744635","151.294197","","","1",""
"2099103","McIntosh Rd at Lascelles Rd","-33.749355","151.270345","","","1",""
"2099104","McIntosh Rd at Eltham St","-33.748998","151.267833","","","1",""
"2099105","McIntosh Rd at Careden Ave","-33.748702","151.265704","","","1",""
"2099106","Warringah Rd at Lascelles Rd","-33.754353","151.268318","","","1",""
"2099107","Warringah Rd at Waratah Pde","-33.754706","151.271089","","","1",""
"2099108","Warringah Rd before Alfred St","-33.754948","151.27307","","","1",""
"2099109","May Road Shops, Warringah Rd","-33.755274","151.275234","","","1",""
"2099110","Moorilla St at Victor Rd","-33.757461","151.27788","","","1",""
"2099111","McIntosh Rd after Careden Ave","-33.748602","151.265993","","","1",""
"2099112","McIntosh Rd opp Loch Etive Pl","-33.74895","151.268374","","","1",""
"2099113","McIntosh Rd opp Edward St","-33.74924","151.270605","","","1",""
"2099114","Narraweena Public School, McIntosh Rd","-33.749731","151.273886","","","1",""
"2099115","McIntosh Rd opp Mundara Pl","-33.750018","151.275947","","","1",""
"2099116","McIntosh Rd at Victor Rd","-33.750214","151.279643","","","1",""
"2099117","McIntosh Rd at Vale Ave","-33.750641","151.282533","","","1",""
"2099118","Fisher Rd before St David Ave","-33.75168","151.285249","","","1",""
"2099119","Alfred St after Warringah Rd","-33.754531","151.273665","","","1",""
"2099120","Alfred St opp Narraweena Community Centre","-33.75223","151.274133","","","1",""
"2099122","St John's Primary School before McIntosh Rd","-33.750492","151.27449","","","1",""
"2099123","Alfred St before Parr Pde","-33.74836","151.274928","","","1",""
"2099124","Alfred St opp Rayner Ave","-33.745749","151.276189","","","1",""
"2099125","Alfred St opp Rowena Rd","-33.744343","151.277666","","","1",""
"2099126","Alfred St after Maas St","-33.742296","151.277463","","","1",""
"2099127","Alfred St at Carawa Rd","-33.740612","151.278379","","","1",""
"2099128","Carawa Rd at Davison St","-33.740163","151.276679","","","1",""
"2099130","Willandra Rd opp Lidwina Pl","-33.740238","151.271282","","","1",""
"2099131","Willandra Rd at Nalya Rd","-33.74211","151.270842","","","1",""
"2099132","Willandra Retirement Village, Willandra Rd","-33.742566","151.268702","","","1",""
"2099133","Willandra Village, Willandra Rd","-33.744773","151.265199","","","1",""
"2099134","Beacon Hill Rural Fire Brigade, Willandra Rd","-33.744706","151.265007","","","1",""
"2099135","Willandra Rd opp Willandra Retirement Village","-33.742433","151.268818","","","1",""
"2099136","Willandra Rd opp Nalya Rd","-33.741829","151.270754","","","1",""
"2099137","Willandra Rd at Lidwina Pl","-33.740061","151.271147","","","1",""
"2099138","Carawa Rd after Waroon Rd","-33.739948","151.276267","","","1",""
"2099139","Alfred St before Maas St","-33.742376","151.277608","","","1",""
"2099140","Alfred St after Rowena Rd","-33.743915","151.278063","","","1",""
"2099141","Alfred St at Rayner Ave","-33.745541","151.276688","","","1",""
"2099142","Alfred St opp Greenwood Ave","-33.746423","151.275346","","","1",""
"2099143","Alfred St at Greenwood Ave","-33.746379","151.275166","","","1",""
"2099144","Alfred St at Parr Pde","-33.747529","151.274943","","","1",""
"2099145","Alfred St at Alamein Ave","-33.749388","151.274876","","","1",""
"2099146","Carcoola Rd opp Meehan Rd","-33.739108","151.272984","","","1",""
"2099147","Carcoola Rd opp Cromer Public School","-33.737435","151.273323","","","1",""
"2099148","Grover Ave before Carrington Ave","-33.735252","151.273109","","","1",""
"2099149","Carrington Ave opp Washington Ave","-33.733975","151.27274","","","1",""
"2099150","Carrington Ave at Toronto Ave","-33.732258","151.273084","","","1",""
"2099151","Toronto Ave opp Cromer Rd","-33.731315","151.2686","","","1",""
"2099152","Toronto Ave opp Truman Reserve","-33.731177","151.266132","","","1",""
"2099153","Truman Ave at Badcoe Rd","-33.732042","151.265199","","","1",""
"2099154","Howse Cres at Truman Ave","-33.734562","151.264926","","","1",""
"2099155","McNamara Rd opp Howse Cres","-33.73323","151.265869","","","1",""
"2099156","Badcoe Rd before Truman Ave","-33.73238","151.265552","","","1",""
"2099157","Truman Reserve, Toronto Ave","-33.731137","151.265842","","","1",""
"2099158","Toronto Ave at Cromer Rd","-33.731025","151.268686","","","1",""
"2099159","Cromer Rd at Toronto Ave","-33.73083","151.268851","","","1",""
"2099160","Blighs Rd opp Cutler Pl","-33.730175","151.266024","","","1",""
"2099161","Woodward St after Blighs Rd","-33.730277","151.264096","","","1",""
"2099162","Macquarie St before Toronto Ave","-33.731555","151.264403","","","1",""
"2099163","Carrington Ave at Toronto Ave","-33.732261","151.273243","","","1",""
"2099164","Carrington Ave at Washington Ave","-33.734321","151.272832","","","1",""
"2099165","Grover Ave opp Carcoola Rd","-33.735168","151.273575","","","1",""
"2099166","Cromer Public School, Carcoola Rd","-33.738078","151.273366","","","1",""
"2099167","Carcoola Rd at Carawa Rd","-33.739319","151.273103","","","1",""
"2099168","Carawa Rd opp Tennyson Rd","-33.740444","151.279638","","","1",""
"2099169","Tennyson Rd opp Prescott Ave","-33.742988","151.281428","","","1",""
"2099170","Cromer Community Centre, Fisher Rd","-33.742464","151.283172","","","1",""
"2099171","Fisher Rd North after Carawa Rd","-33.740118","151.281135","","","1",""
"2099172","Carawa Rd at Alfred St","-33.740246","151.278272","","","1",""
"2099173","Fisher Rd North opp Dee Why Bowling & Recreation Club","-33.738496","151.280133","","","1",""
"2099174","Fisher Rd at Grover Ave","-33.736343","151.279861","","","1",""
"2099175","South Creek Rd before Thew Pde","-33.736509","151.281836","","","1",""
"2099176","South Creek Rd after Thew Pde","-33.7367","151.281888","","","1",""
"2099177","Fisher Rd North opp Grover Ave","-33.736368","151.280015","","","1",""
"2099178","Dee Why Bowling & Recreation Club, Fisher Rd North","-33.738555","151.28034","","","1",""
"2099179","Fisher Rd North opp Carawa Rd","-33.740028","151.28126","","","1",""
"2099180","Dee Why Gardens Retirement Village, Fisher Rd Nth","-33.74288","151.283776","","","1",""
"2099181","Tennyson Rd after Prescott Ave","-33.743105","151.281163","","","1",""
"2099182","Tennyson Rd at Carawa Rd","-33.740881","151.27971","","","1",""
"2099183","Carawa Rd at Alfred St","-33.740476","151.278755","","","1",""
"2099186","South Creek Rd opp Cromer Park","-33.739129","151.286388","","","1",""
"2099187","South Creek Rd before Campbell Ave","-33.740042","151.288082","","","1",""
"2099188","Campbell Ave at Heron Pl","-33.743627","151.288134","","","1",""
"2099189","Fisher Rd at Ilikai Pl","-33.745121","151.286649","","","1",""
"2099190","Fisher Rd at Lismore Ave","-33.746609","151.286342","","","1",""
"2099191","Lismore Ave after Pittwater Rd","-33.74765","151.289999","","","1",""
"2099192","Westminster Ave after Lismore Ave","-33.747763","151.289225","","","1",""
"2099193","Fisher Rd at Regent St","-33.748731","151.28589","","","1",""
"2099194","Fisher Rd North after Lynwood Ave","-33.743994","151.284538","","","1",""
"2099195","Dee Why Public School, Regent St","-33.749038","151.28659","","","1",""
"2099196","Regent St at Westminster Ave","-33.749347","151.287764","","","1",""
"2099197","Fisher Rd at Tor Rd","-33.74751","151.285976","","","1",""
"2099198","Fisher Rd opp Ilikai Pl","-33.74518","151.28646","","","1",""
"2099199","Campbell Ave after Bruzzano Pl","-33.743172","151.288047","","","1",""
"2099200","South Creek Rd after Campbell Ave","-33.739782","151.287298","","","1",""
"2099201","Pittwater House School, South Creek Rd","-33.741357","151.29057","","","1",""
"2099202","Inman Rd opp Orlando Rd","-33.73668","151.286303","","","1",""
"2099204","NBSC Cromer Campus, School Grounds, South Creek Rd","-33.738424","151.284606","","","1",""
"2099205","St Davids Ave at Pittwater Rd","-33.752351","151.286416","","","1",""
"2099206","Quirk St at Carew st","-33.758558","151.289411","","","1",""
"2099209","Truman Ave opp Truman Ave Shops","-33.734461","151.264721","","","1",""
"2099210","Maybrook Village, Maybrook Ave","-33.734765","151.262741","","","1",""
"2099211","McIntosh Rd at Waratah Pde","-33.749659","151.272517","","","1",""
"2099212","Toronto Ave before Carrington Ave","-33.732114","151.274411","","","1",""
"2099213","Cromer Public School, Waroon Rd","-33.738548","151.275932","","","1",""
"2099214","Pacific Pde at Monash Pde","-33.756159","151.297676","","","1",""
"2099215","Monash Pde opp Boronia St","-33.75819","151.29926","","","1",""
"2099216","Curl Curl North Public School, Playfair Rd","-33.763846","151.288526","","","1",""
"2099217","South Creek Rd after Pittwater Rd","-33.74476","151.294065","","","1",""
"2099218","Toronto Ave opp Carrington Ave","-33.732023","151.274634","","","1",""
"2099221","Nalya Rd at Yallaroi Rd","-33.743923","151.271711","","","1",""
"2099223","Parr Pde opp Ronald Ave","-33.746833","151.267917","","","1",""
"2099224","Sturdee Pde after Pittwater Rd","-33.755402","151.284749","","","1",""
"2099225","St Kevin's Primary School, Oaks Ave","-33.754234","151.290574","","","0",""
"2099226","Oaks Ave before The Strand","-33.754727","151.295306","","","1",""
"2100100","Allambie Rd at Mortain Ave","-33.760104","151.245566","","","1",""
"2100101","Allambie Rd at Darmour Ave","-33.763392","151.247205","","","1",""
"2100102","Allambie Rd opp Allambie Heights Public School","-33.765203","151.249662","","","1",""
"2100103","Allambie Rd at Corkery Cres","-33.769361","151.258626","","","1",""
"2100104","Allambie Rd after Corkery Cres","-33.772228","151.259642","","","1",""
"2100105","Allambie Rd opp Eerawy Rd","-33.77428","151.261498","","","1",""
"2100106","Kentwell Rd before Orara Rd","-33.775694","151.262644","","","1",""
"2100107","Kentwell Rd after Orara Rd","-33.776422","151.26439","","","1",""
"2100108","Kentwell Rd before Condamine St","-33.777087","151.265532","","","1",""
"2100110","Condamine St at Pozieres Pde","-33.771336","151.2657","","","1",""
"2100111","Warringah Mall, Pittwater Rd, Stand D","-33.767522","151.268385","","","1",""
"2100113","Warringah Rd before Cornish Ave","-33.75321","151.258348","","","1",""
"2100114","Warringah Rd before Willandra Rd","-33.754147","151.260471","","","1",""
"2100115","Willandra Rd opp Beacon Hill Memorial Hall","-33.752583","151.261162","","","1",""
"2100116","Tristram Rd opp Beacon Hill Public School","-33.752295","151.260077","","","1",""
"2100118","Tristram Rd opp Boyer Rd","-33.751802","151.256438","","","1",""
"2100119","Tristram Rd opp Holy Trinity Anglican Church","-33.750192","151.253418","","","1",""
"2100120","Iris St before Jones St","-33.74974","151.249555","","","1",""
"2100121","Iris St opp Jones St","-33.749626","151.249692","","","1",""
"2100122","Holy Trinity Anglican Church, Tristram Rd","-33.750102","151.253497","","","1",""
"2100123","Tristram Rd at Boyer Rd","-33.751645","151.256222","","","1",""
"2100125","Beacon Hill Public School, Tristram Rd","-33.752179","151.26029","","","1",""
"2100126","Beacon Hill Public School, Tristram Rd","-33.752219","151.26056","","","1",""
"2100127","Willandra Rd at Egan Pl","-33.750223","151.261611","","","1",""
"2100128","McIntosh Rd at Cousins Rd","-33.748329","151.264222","","","1",""
"2100130","Jennifer Ave at Nargong Rd","-33.769623","151.25658","","","1",""
"2100131","Warringah Mall, Pittwater Rd, Stand A","-33.767899","151.268449","","","1",""
"2100133","Kentwell Rd after Condamine St","-33.777146","151.266358","","","1",""
"2100134","Kentwell Rd before Cornwell Rd","-33.776391","151.264153","","","1",""
"2100135","Kentwell Rd opp Allambie Rd","-33.775797","151.262264","","","1",""
"2100136","McIntosh Rd before Cousins Rd","-33.748505","151.26444","","","1",""
"2100137","Willandra Rd opp Egan Pl","-33.750167","151.261797","","","1",""
"2100138","Beacon Hill Memorial Hall, Willandra Rd","-33.752691","151.261307","","","1",""
"2100139","Warringah Rd opp Beacon Hill Rd","-33.754899","151.263789","","","1",""
"2100140","Warringah Rd at McKillop Rd","-33.754278","151.265309","","","1",""
"2100141","Warringah Rd opp Cornish Ave","-33.753439","151.258419","","","1",""
"2100142","Warringah Rd after Jones St","-33.751832","151.248809","","","1",""
"2100143","Warringah Rd at Ellis Rd","-33.752483","151.253324","","","1",""
"2100144","Warringah Rd at Oxford Falls Rd","-33.752719","151.254942","","","1",""
"2100145","Warringah Mall, Pittwater Rd, Stand B","-33.767531","151.268685","","","1",""
"2100148","Binalong Ave at Kentwell Rd","-33.773757","151.256712","","","1",""
"2100149","Kentwell Rd at Tokara St","-33.774356","151.258086","","","1",""
"2100150","Wandella Rd opp Carinya Cl","-33.776069","151.258419","","","1",""
"2100151","Binalong Ave before Southern Cross Way","-33.775893","151.25669","","","1",""
"2100152","Southern Cross Way after Coolalie Pl","-33.774774","151.255418","","","1",""
"2100153","11 Southern Cross Way","-33.772882","151.255478","","","1",""
"2100154","Monserra Rd before Cootamundra Dr","-33.770529","151.254622","","","1",""
"2100155","Monserra Rd opp Maneroo Ave","-33.768802","151.255818","","","1",""
"2100156","Oxford Falls Grammar School, Oxford Falls Rd","-33.738018","151.246707","","","1",""
"2100158","Mary St at O'Conners Rd","-33.754304","151.254357","","","1",""
"2100159","Mary St at Dresden Ave","-33.754651","151.256706","","","1",""
"2100160","Government Rd after Mary St","-33.754339","151.252594","","","1",""
"2100161","Government Rd at Stephen St","-33.755933","151.252228","","","1",""
"2100162","Ethie Rd opp Goroka Park","-33.757716","151.252531","","","1",""
"2100163","Owen Stanley Ave at Kokoda Cres","-33.759079","151.254402","","","1",""
"2100164","40 Kokoda Cres","-33.758009","151.255687","","","1",""
"2100165","Kokoda Cres at Owen Stanley Ave","-33.759077","151.256341","","","1",""
"2100166","Goroka Park, Ethie Rd","-33.757741","151.252365","","","1",""
"2100167","Government Rd opp Stephen St","-33.756492","151.251953","","","1",""
"2100168","Government Rd opp Mary St","-33.754325","151.252423","","","1",""
"2100170","St Augustine's College, Alfred Rd","-33.760063","151.272072","","","1",""
"2100171","Mary St at O'Conners Rd","-33.754192","151.254394","","","1",""
"2100172","Mary St opp Dresden Ave","-33.754558","151.256774","","","1",""
"2100173","Wyadra Ave opp Ozone St","-33.7713","151.274998","","","1",""
"2100174","Wyadra Ave opp Quilpie St","-33.771521","151.275717","","","1",""
"2100178","Jennifer Ave opp Nargong Rd","-33.769698","151.256298","","","0",""
"2100179","Winbourne Rd after Harbord Rd","-33.763041","151.279333","","","0",""
"2101104","Pittwater Rd at Albert St","-33.714405","151.297473","","","0",""
"2101110","Gondola Rd at Minarto Lane","-33.707814","151.295422","","","1",""
"2101111","99 Gondola Rd","-33.706108","151.289435","","","1",""
"2101112","Gondola Rd at Rickard Rd","-33.704576","151.287534","","","1",""
"2101114","Grenfell Ave opp Narrabeen Baptist Church","-33.710048","151.293932","","","1",""
"2101115","86 Rickard Rd","-33.707303","151.289724","","","1",""
"2101116","95 Rickard Rd","-33.707335","151.289476","","","1",""
"2101117","Rickard Rd at Minarto Lane","-33.708669","151.295265","","","1",""
"2101118","Powderworks Rd at Merridong St","-33.695836","151.283522","","","1",""
"2101119","Powderworks Rd at Cooleena Rd","-33.69836","151.287312","","","1",""
"2101120","70 Powderworks Rd","-33.701144","151.289728","","","1",""
"2101121","Powderworks Rd at Alleyne Ave","-33.702618","151.291997","","","1",""
"2101122","Powderworks Rd opp Cooleena Rd","-33.698508","151.287633","","","1",""
"2101123","Elanora Heights Shops, Powderworks Rd","-33.695154","151.280471","","","1",""
"2101124","Powderworks Rd opp Lesley Cl","-33.696273","151.284473","","","1",""
"2101132","Ocean St at King St","-33.715966","151.299091","","","1",""
"2103100","Mona Vale Rd opp Oliver Way","-33.6782","151.298636","","","1",""
"2103105","Pittwater Rd before Jenkins St","-33.685668","151.304015","","","1",""
"2103106","Barrenjoey Rd opp Village Park","-33.677462","151.305001","","","0",""
"2107100","Patrick St opp Wanawong Rd","-33.621965","151.322939","","","1",""
"2107101","Patrick St opp Elizabeth St","-33.622487","151.325066","","","1",""
"2107102","Patrick St at Therry St","-33.623526","151.326162","","","1",""
"2107103","Patrick St at Joseph St","-33.624635","151.327266","","","1",""
"2107104","Patrick St at William St","-33.626009","151.32862","","","1",""
"2107105","Elvina Ave after Patrick St","-33.627395","151.330529","","","1",""
"2107106","George St before Barrenjoey Rd","-33.628427","151.331326","","","1",""
"2107108","Barrenjoey Rd after Avalon Pde","-33.63576","151.330534","","","1",""
"2107110","Avalon Pde after Central Rd","-33.630696","151.319676","","","1",""
"2107111","Avalon Pde opp Gunjulla Pl","-33.632936","151.320886","","","1",""
"2107112","Avalon Pde opp Ruskin Rowe","-33.634571","151.325065","","","1",""
"2107113","66 Avalon Pde","-33.634941","151.325974","","","1",""
"2107114","Avalon Pde at Bowling Green Lane","-33.635583","151.327556","","","1",""
"2107115","Avalon Community Library, Old Barrenjoey Rd","-33.635963","151.329475","","","1",""
"2107116","Avalon Pde at Old Barrenjoey Rd","-33.63626","151.329163","","","1",""
"2107117","Central Rd opp Maria Regina Primary School","-33.634001","151.32894","","","1",""
"2107118","Central Rd opp Nandina Tce","-33.632056","151.323803","","","1",""
"2107119","Central Rd opp Burrendong Pl","-33.630702","151.320911","","","1",""
"2107120","Maria Regina Primary School, Central Rd","-33.633827","151.32977","","","1",""
"2107121","Whale Beach Rd before Burrawong Rd","-33.624546","151.334568","","","1",""
"2107122","Carreel Head Rd at Burrawong Rd","-33.621327","151.334025","","","1",""
"2107123","Whale Beach Rd at Burrawong Rd","-33.624048","151.335262","","","1",""
"2107124","Whale Beach Rd at Alexander Rd","-33.622929","151.336856","","","1",""
"2107125","48 Whale Beach Rd","-33.621666","151.337961","","","1",""
"2107126","Whale Beach Rd opp Raynor Rd","-33.617867","151.335132","","","1",""
"2107127","Whale Beach Rd opp Malo Rd","-33.613372","151.329888","","","1",""
"2107128","Whale Beach Rd before Surf Rd","-33.610981","151.329786","","","1",""
"2107129","Whale Beach Rd at Morella Rd","-33.608191","151.330893","","","1",""
"2107130","Whale Beach Rd opp Surf Rd","-33.611498","151.329952","","","1",""
"2107131","Whale Beach Rd at Malo Rd","-33.613419","151.330038","","","1",""
"2107132","Whale Beach Rd opp Beauty Dr","-33.615426","151.33204","","","1",""
"2107133","Whale Beach Rd before Raynor Rd","-33.617755","151.335178","","","1",""
"2107134","Whale Beach Rd opp Careel Head Rd","-33.6194","151.337608","","","1",""
"2107135","Whale Beach Rd opp Alexander Rd","-33.622906","151.337103","","","1",""
"2107136","Whale Beach Rd before Burrawong Rd","-33.624106","151.335426","","","1",""
"2107137","Old Barrenjoey Rd at Avalon Pde","-33.636776","151.329185","","","1",""
"2107138","Binburra Ave after North Avalon Rd","-33.626808","151.334656","","","1",""
"2107139","Milga Rd at Binburra Ave","-33.625453","151.337535","","","1",""
"2107140","Watkins Rd opp North Avalon Rd","-33.627521","151.338573","","","1",""
"2107141","Marine Pde opp Coonanga Rd","-33.629859","151.338324","","","1",""
"2107142","Coonanga Rd before Tasman Rd","-33.63014","151.336238","","","1",""
"2107143","Barrenjoey High School, Coonanga Rd","-33.629957","151.334656","","","1",""
"2107144","Catalina Cres after Coonanga Rd","-33.628826","151.334373","","","1",""
"2107145","Coonanga Rd after Tasman Rd","-33.630059","151.33632","","","1",""
"2107146","Coonanga Rd opp Harley Rd","-33.630215","151.337724","","","1",""
"2107147","Watkins Rd after North Avalon Rd","-33.627492","151.338455","","","1",""
"2107148","Milga Rd opp Binburra Ave","-33.6255","151.337066","","","1",""
"2107149","Old Barrenjoey Rd opp Avalon Public School","-33.639571","151.327513","","","1",""
"2107150","The Outlook after Daly St","-33.64399","151.317138","","","1",""
"2107151","Argyle St after Grandview Dr","-33.648902","151.313276","","","1",""
"2107152","Catalina Cres before Coonanga Rd","-33.629107","151.334522","","","1",""
"2107153","Whale Beach Rd at Beauty Dr","-33.61506","151.332065","","","1",""
"2107154","73 Whale Beach Rd","-33.621671","151.338125","","","1",""
"2107155","Whale Beach Rd at Careel Head Rd","-33.619443","151.337413","","","1",""
"2107156","69 Avalon Pde","-33.635245","151.326313","","","1",""
